stop_id,stop_code,stop_name,stop_desc,stop_lat,stop_lon,zone_id,stop_url,location_type,parent_station,wheelchair_boarding,stop_direction
Balderas,,Balderas,Parent station metro,19.42726839,-99.14896131,,,1,,,
Bellas_Artes,,Bellas Artes,Parent station metro,19.43674867,-99.14109707,,,1,,,
Candelaria,,Candelaria,Parent station metro,19.42930209,-99.11932826,,,1,,,
Centro_medico,,Centro Médico,Parent station metro,19.40698057,-99.15514112,,,1,,,
Chabacano,,Chabacano,Parent station metro,19.40902464,-99.13561463,,,1,,,
El_Rosario,,El Rosario,Parent station metro,19.50468285,-99.19991255,,,1,,,
Garibaldi,,Garibaldi,Parent station metro,19.44364858,-99.13913369,,,1,,,
Guerrero,,Guerrero,Parent station metro,19.44507507,-99.14563537,,,1,,,
Hidalgo,,Hidalgo,Parent station metro,19.43734559,-99.14692283,,,1,,,
Mixcoac,,Mixcoac,Parent station metro,19.37592163,-99.18756366,,,1,,,
Oceanía,,Oceanía,Parent station metro,19.44531787,-99.08680916,,,1,,,
Salto_del_Agua,,Salto del Agua,Parent station metro,19.42678273,-99.14243817,,,1,,,
STOP_132131,,Mixcoac,"Metro. Línea 12, correspondencia con línea 7.",19.37567873,-99.18686628,,,0,Mixcoac,0,
STOP_14050,,Revolución,Metro. Línea 2,19.43880248,-99.15389657,,,0,,0,
STOP_14051,,Morelos,"Metro. Línea B, correspondencia con línea 4.",19.438426,-99.11933,,,0,,0,
STOP_14052,,Gómez Farías,Metro. Línea 1,19.41608763,-99.09070373,,,0,,0,
STOP_14053,,Blvd. Puerto Aéreo,Metro. Línea 1,19.41958866,-99.09606814,,,0,,0,
STOP_14054,,Tacubaya,"Metro. Línea 1, correspondencia con línea 7 y línea 9.",19.40268995,-99.18685555,,,0,Tacubaya,0,
STOP_14055,,Observatorio,Metro. Línea 1,19.397486,-99.200669,,,0,,0,
STOP_14056,,Viaducto,Metro. Línea 2,19.40074699,-99.13663387,,,0,,0,
STOP_14057,,Xola,Metro. Línea 2,19.3950293,-99.13758874,,,0,,0,
STOP_14058,,Centro Médico,"Metro. Línea 3, correspondencia con línea 9.",19.40749665,-99.15531278,,,0,Centro_medico,0,
STOP_14059,,Etiopía / Plaza de la Transparencia,Metro. Línea 3,19.39604129,-99.15617108,,,0,,0,
STOP_14060,,Aragón,Metro. Línea 5,19.45101356,-99.09598231,,,0,,0,
STOP_14061,,Oceanía,"Metro. Línea 5, correspondencia con línea B.",19.444387,-99.086543,,,0,Oceanía,0,
STOP_14062,,Tacubaya,"Metro. Línea 7, correspondencia con línea 1 y línea 9.",19.400604,-99.186417,,,0,Tacubaya,0,
STOP_14063,,San Pedro de Los Pinos,Metro. Línea 7,19.39122414,-99.18572903,,,0,,0,
STOP_14064,,Santa Anita,"Metro. Línea 8, correspondencia con línea 4.",19.40397512,-99.12136674,,,0,,0,
STOP_14065,,Coyuya,Metro. Línea 8,19.39769,-99.113413,,,0,,0,
STOP_14066,,Atlalilco,"Metro Línea 8, correspondencia con línea 12.",19.35570839,-99.10157204,,,0,,0,
STOP_14067,,Iztapalapa,Metro. Línea 8,19.35760127,-99.09341812,,,0,,0,
STOP_14068,,Puebla,Metro. Línea 9,19.40697045,-99.08233523,,,0,,0,
STOP_14069,,Ciudad Deportiva,Metro. Línea 9,19.40811392,-99.09135818,,,0,,0,
STOP_14070,,Agrícola Oriental,Metro. Línea A,19.40404596,-99.06982541,,,0,,0,
STOP_14071,,Canal de San Juan,Metro. Línea A,19.39821706,-99.05969739,,,0,,0,
STOP_14072,,Oceanía,"Metro. Línea B, correspondencia con línea 5.",19.44572255,-99.08683062,,,0,Oceanía,0,
STOP_14073,,Romero Rubio,Metro. Línea B,19.44048194,-99.09420133,,,0,,0,
STOP_14074,,Eugenia,Metro. Línea 3,19.38628539,-99.15724397,,,0,,0,
STOP_14075,,Copilco,Metro. Línea 3,19.33597857,-99.17657733,,,0,,0,
STOP_14076,,Universidad,Metro. Línea 3,19.32433595,-99.17407751,,,0,,0,
STOP_14077,,Zapata,"Metro. Línea 3, correspondencia con línea 12.",19.37073951,-99.1645503,,,0,Zapata,0,
STOP_14078,,Coyoacán,Metro. Línea 3,19.36142746,-99.17056918,,,0,,0,
STOP_14079,,Mixcoac,"Metro. Línea 7, correspondencia con línea 12.",19.37625563,-99.18774605,,,0,Mixcoac,0,
STOP_14080,,Barranca del Muerto,Metro. Línea 7,19.3614882,-99.18895841,,,0,,0,
STOP_14081,,Viveros,Metro. Línea 3,19.35376487,-99.17542934,,,0,,0,
STOP_14082,,Miguel Ángel de Quevedo,Metro. Línea 3,19.34651696,-99.18053627,,,0,,0,
STOP_14083,,División del Norte,Metro. Línea 3,19.3789276,-99.15950775,,,0,,0,
STOP_14084,,San Antonio,Metro. Línea 7,19.38481791,-99.18661952,,,0,,0,
STOP_14085,,Portales,Metro. Línea 2,19.36976784,-99.14130092,,,0,,0,
STOP_14086,,Ermita,Metro. Línea 2,19.36186271,-99.14263129,,,0,,0,
STOP_14087,,Aculco,Metro. Línea 8,19.37292574,-99.10739779,,,0,,0,
STOP_14088,,Escuadrón 201,Metro. Línea 8,19.36449442,-99.10931826,,,0,,0,
STOP_14089,,General Anaya,Metro. Línea 2,19.35319801,-99.14478779,,,0,,0,
STOP_14090,,Tasqueña,Metro. Línea 2,19.34400644,-99.14105415,,,0,,0,
STOP_14092,,Villa de Cortés,Metro. Línea 2,19.38746949,-99.13862944,,,0,,0,
STOP_14093,,Nativitas,Metro. Línea 2,19.37938304,-99.13987398,,,0,,0,
STOP_14094,,Iztacalco,Metro. Línea 8,19.388092,-99.112086,,,0,,0,
STOP_14095,,Apatlaco,Metro. Línea 8,19.378298,-99.10934,,,0,,0,
STOP_14096,,Cuauhtémoc,Metro. Línea 1,19.42539655,-99.15460467,,,0,,0,
STOP_14097,,Insurgentes,Metro. Línea 1,19.42359552,-99.16325212,,,0,,0,
STOP_14098,,San Cosme,Metro. Línea 2,19.44185787,-99.16094542,,,0,,0,
STOP_14099,,La Raza,"Metro. Línea 3, correspondencia con línea 5.",19.46907052,-99.13904786,,,0,,0,
STOP_14100,,Tlatelolco,Metro. Línea 3,19.45520174,-99.1430819,,,0,,0,
STOP_14101,,Talismán,Metro. Línea 4,19.47415847,-99.10779476,,,0,,0,
STOP_14102,,Bondojito,Metro. Línea 4,19.46450842,-99.1117537,,,0,,0,
STOP_14103,,La Raza,"Metro. Línea 5, correspondencia con línea 3.",19.468965,-99.136176,,,0,,0,
STOP_14104,,Misterios,Metro. Línea 5,19.46290002,-99.13051844,,,0,,0,
STOP_14105,,Norte 45,Metro. Línea 6,19.48823803,-99.16249037,,,0,,0,
STOP_14106,,Vallejo,Metro. Línea 6,19.49031142,-99.15479779,,,0,,0,
STOP_14107,,Refinería,Metro. Línea 7,19.46911098,-99.18985963,,,0,,0,
STOP_14108,,Tacuba,"Metro. Línea 7, correspondencia con línea 2.",19.458383,-99.188501,,,0,Tacuba,0,
STOP_14109,,Centro Médico,"Metro. Línea 9, correspondencia con línea 3.",19.40636329,-99.15504456,,,0,Centro_medico,0,
STOP_14110,,Chilpancingo,Metro. Línea 9,19.40575613,-99.1683054,,,0,,0,
STOP_14111,,Panteones,Metro. Línea 2,19.458219,-99.20294,,,0,,0,
STOP_14112,,Tacuba,"Metro. Línea 2, correspondencia con línea 7.",19.45913691,-99.18803573,,,0,Tacuba,0,
STOP_14113,,San Joaquín,Metro. Línea 7,19.44553033,-99.19160843,,,0,,0,
STOP_14114,,Polanco,Metro. Línea 7,19.43337954,-99.19079304,,,0,,0,
STOP_14115,,Auditorio,Metro. Línea 7,19.42530549,-99.19173717,,,0,,0,
STOP_14116,,Constituyentes,Metro. Línea 7,19.41129131,-99.19138312,,,0,,0,
STOP_14117,,Cuatro Caminos,Metro. Línea 2,19.458454,-99.214643,,,0,,0,
STOP_14118,,Sevilla,Metro. Línea 1,19.4215921,-99.17063355,,,0,,0,
STOP_14119,,Chapultepec,Metro. Línea 1,19.42025648,-99.17658806,,,0,,0,
STOP_14120,,Juanacatlán,Metro. Línea 1,19.41290022,-99.18207049,,,0,,0,
STOP_14121,,Patriotismo,Metro. Línea 9,19.40559422,-99.1784656,,,0,,0,
STOP_14122,,Tacubaya,"Metro. Línea 9, correspondencia con línea 1 y línea 7.",19.40247744,-99.18730617,,,0,Tacubaya,0,
STOP_14123,,Popotla,Metro. Línea 2,19.45261196,-99.17546153,,,0,,0,
STOP_14124,,Colegio Militar,Metro. Línea 2,19.44864628,-99.17122364,,,0,,0,
STOP_14125,,Cuitláhuac,Metro. Línea 2,19.45668,-99.181555,,,0,,0,
STOP_14126,,Normal,Metro. Línea 2,19.44424548,-99.1671896,,,0,,0,
STOP_14127,,El Rosario,"Metro. Línea 6, correspondencia con línea 7.",19.50522896,-99.19948339,,,0,El_Rosario,0,
STOP_14128,,Tezozómoc,Metro. Línea 6,19.49448847,-99.19593215,,,0,,0,
STOP_14129,,Azcapotzalco,Metro. Línea 6,19.49067553,-99.18621182,,,0,,0,
STOP_14130,,El Rosario,"Metro. Línea 7, correspondencia con línea 6.",19.5039547,-99.20029879,,,0,El_Rosario,0,
STOP_14131,,Aquiles Serdán,Metro. Línea 7,19.489367,-99.194511,,,0,,0,
STOP_14132,,Camarones,Metro. Línea 7,19.47873042,-99.18894768,,,0,,0,
STOP_14133,,Ferrería,Metro. Línea 6,19.49039233,-99.173702,,,0,,0,
STOP_14134,,Candelaria,"Metro. Línea 1, correspondencia con línea 4.",19.42909974,-99.11989689,,,0,Candelaria,0,
STOP_14135,,Merced,Metro. Línea 1,19.42546738,-99.12541151,,,0,,0,
STOP_14136,,Zócalo,Metro. Línea 2,19.432602,-99.131879,,,0,,0,
STOP_14137,,Pino Suárez,"Metro. Línea 2, correspondencia con línea 1.",19.42433415,-99.13313627,,,0,,0,
STOP_14138,,Juárez,Metro. Línea 3,19.43336942,-99.14771676,,,0,,0,
STOP_14139,,Balderas,"Metro. Línea 3, correspondencia con línea 1.",19.42692438,-99.1488111,,,0,Balderas,0,
STOP_14140,,Valle Gómez,Metro. Línea 5,19.45868169,-99.11988616,,,0,,0,
STOP_14141,,Bellas Artes,"Metro. Línea 8, correspondencia con línea 2.",19.43649573,-99.14061427,,,0,Bellas_Artes,0,
STOP_14142,,San Juan de Letrán,Metro. Línea 8,19.43098165,-99.14116144,,,0,,0,
STOP_14143,,La Viga,Metro. Línea 8,19.406106,-99.125973,,,0,,0,
STOP_14144,,Jamaica,"Metro. Línea 9, correspondencia con línea 4.",19.40894369,-99.12227869,,,0,,0,
STOP_14145,,Chabacano,"Metro. Línea 9, correspondencia con línea 2 y línea 8.",19.408513,-99.135489,,,0,Chabacano,0,
STOP_14146,,R. Flores Magón,Metro. Línea B,19.43628327,-99.10342813,,,0,,0,
STOP_14147,,San Lázaro,"Metro. Línea B, correspondencia con línea 1.",19.431822,-99.114463,,,0,,0,
STOP_14148,,Tepito,Metro. Línea B,19.44256606,-99.12323356,,,0,,0,
STOP_14149,,Isabel la Católica,Metro. Línea 1,19.4260947,-99.13782477,,,0,,0,
STOP_14151,,Niños Héroes,Metro. Línea 3,19.41946724,-99.15023804,,,0,,0,
STOP_14152,,Hospital General,Metro. Línea 3,19.41369961,-99.1531992,,,0,,0,
STOP_14153,,Doctores,Metro. Línea 8,19.42049932,-99.14335012,,,0,,0,
STOP_14154,,Obrera,Metro. Línea 8,19.41301153,-99.14392948,,,0,,0,
STOP_14155,,Chabacano,"Metro. Línea 8, correspondencia con línea 2 y línea 9.",19.40853892,-99.13574338,,,0,Chabacano,0,
STOP_14156,,Lázaro Cárdenas,Metro. Línea 9,19.40702104,-99.14433718,,,0,,0,
STOP_14157,,Balderas,"Metro. Línea 1, correspondencia con línea 3.",19.42729875,-99.14912224,,,0,Balderas,0,
STOP_14158,,Salto del Agua,"Metro. Línea 8, correspondencia con línea 1.",19.42720768,-99.14207339,,,0,Salto_del_Agua,0,
STOP_14159,,Chabacano,"Metro. Línea 2, correspondencia con línea 8 y línea 9.",19.40891333,-99.13542151,,,0,Chabacano,0,
STOP_14160,,San Antonio Abad,Metro. Línea 2,19.4159055,-99.13429499,,,0,,0,
STOP_14161,,Pino Suárez,"Metro. Línea 1, correspondencia con línea 2.",19.42602387,-99.13273931,,,0,,0,
STOP_14162,,Bellas Artes,"Metro. Línea 2, correspondencia con línea 8.",19.43658679,-99.14214849,,,0,Bellas_Artes,0,
STOP_14163,,Allende,Metro. Línea 2,19.43547387,-99.13670897,,,0,,0,
STOP_14164,,Guerrero,"Metro. Línea 3, correspondencia con línea B.",19.44475133,-99.14501309,,,0,Guerrero,0,
STOP_14165,,Garibaldi,"Metro. Línea B, correspondencia con línea 8.",19.443376,-99.139954,,,0,Garibaldi,0,
STOP_14166,,Guerrero,"Metro. Línea B, correspondencia con línea 3.",19.44522682,-99.1463542,,,0,Guerrero,0,
STOP_14167,,Hidalgo,"Metro. Línea 2, correspondencia con línea 3.",19.4376997,-99.14730906,,,0,Hidalgo,0,
STOP_14168,,Hidalgo,"Metro. Línea 3, correspondencia con línea 2.",19.43674867,-99.14681554,,,0,Hidalgo,0,
STOP_14169,,Garibaldi,"Metro. Línea 8, correspondencia con línea B.",19.443082,-99.139034,,,0,Garibaldi,0,
STOP_14170,,Buenavista,Metro. Línea B,19.44615757,-99.15289879,,,0,,0,
STOP_14171,,Lagunilla,Metro. Línea B,19.44300109,-99.13107634,,,0,,0,
STOP_14172,,Balbuena,Metro. Línea 1,19.42288725,-99.10281658,,,0,,0,
STOP_14173,,Moctezuma,Metro. Línea 1,19.426271,-99.109803,,,0,,0,
STOP_14174,,Fray Servando,Metro. Línea 4,19.42149092,-99.12033677,,,0,,0,
STOP_14175,,Jamaica,"Metro. Línea 4, correspondencia con línea 9.",19.41014786,-99.12203193,,,0,,0,
STOP_14176,,Velódromo,Metro. Línea 9,19.40811392,-99.10283804,,,0,,0,
STOP_14177,,Mixhuca,Metro. Línea 9,19.40820499,-99.11285877,,,0,,0,
STOP_14178,,Santa Anita,"Metro. Línea 4, correspondencia con líneas 8.",19.40425847,-99.12120581,,,0,,0,
STOP_14179,,San Lázaro,"Metro. Línea 1, correspondencia con línea B.",19.43079953,-99.11457539,,,0,,0,
STOP_14181,,Canal del Norte,Metro. Línea 4,19.44866652,-99.11589503,,,0,,0,
STOP_14182,,Morelos,"Metro. Línea 4, correspondencia con línea B.",19.43973327,-99.11790133,,,0,,0,
STOP_14184,,Eduardo Molina,Metro. Línea 5,19.45112485,-99.10544515,,,0,,0,
STOP_14185,,Consulado,"Metro. Línea 4, correspondencia con línea 5.",19.45682033,-99.11388874,,,0,,0,
STOP_14186,,Indios Verdes,Metro. Línea 3,19.495315,-99.119141,,,0,,0,
STOP_14187,,Deportivo 18 de Marzo,"Metro. Línea 3, correspondencia con línea 6.",19.4840507,-99.12543297,,,0,,0,
STOP_14188,,Politécnico,Metro. Línea 5,19.499964,-99.148806,,,0,,0,
STOP_14190,,Deportivo 18 de Marzo,"Metro. Línea 6, correspondencia con línea 3.",19.48358544,-99.12576556,,,0,,0,
STOP_14191,,La Villa - Basílica,Metro. Línea 6,19.4814715,-99.11815882,,,0,,0,
STOP_14192,,Potrero,Metro. Línea 3,19.476413,-99.131748,,,0,,0,
STOP_14193,,Autobuses del Norte,Metro. Línea 5,19.478595,-99.140471,,,0,,0,
STOP_14194,,Instituto del Petróleo,"Metro. Línea 6, correspondencia con línea 5.",19.48983606,-99.14455175,,,0,,0,
STOP_14195,,Lindavista,Metro. Línea 6,19.4875806,-99.13434863,,,0,,0,
STOP_14196,,Martín Carrera,"Metro. Línea 4, correspondencia con línea 6.",19.4837675,-99.10599232,,,0,,0,
STOP_14197,,Martín Carrera,"Metro. Línea 6, correspondencia con línea 4.",19.48231101,-99.10554171,,,0,,0,
STOP_14198,,Guelatao,Metro. Línea A,19.38459525,-99.03579354,,,0,,0,
STOP_14199,,Peñón Viejo,Metro. Línea A,19.37291562,-99.0172863,,,0,,0,
STOP_14200,,Tepalcates,Metro. Línea A,19.39072824,-99.04651165,,,0,,0,
STOP_14201,,UAM-I,Metro. Línea 8,19.350327,-99.074808,,,0,,0,
STOP_14202,,Constitución de 1917,Metro. Línea 8,19.345135,-99.063367,,,0,,0,
STOP_14203,,Cerro de la Estrella,Metro. Línea 8,19.355601,-99.085872,,,0,,0,
STOP_14204,,Acatitla,Metro. Línea A,19.3642515,-99.00597811,,,0,,0,
STOP_14205,,Santa Marta,Metro. Línea A,19.359804,-98.995894,,,0,,0,
STOP_14206,,Los Reyes,Metro. Línea A,19.35877546,-98.97670984,,,0,,0,
STOP_14207,,La Paz,Metro. Línea A,19.35048513,-98.96061659,,,0,,0,
STOP_14208,,Ciudad Azteca,Metro. Línea B,19.53444312,-99.02711391,,,0,,0,
STOP_14209,,Plaza Aragón,Metro. Línea B,19.52822456,-99.02979612,,,0,,0,
STOP_14210,,Nezahualcóyotl,Metro. Línea B,19.472534,-99.054375,,,0,,0,
STOP_14211,,Villa de Aragón,Metro. Línea B,19.4613523,-99.06114578,,,0,,0,
STOP_14212,,Terminal Aérea,Metro. Línea 5,19.43380448,-99.08820391,,,0,,0,
STOP_14213,,Hangares,Metro. Línea 5,19.423251,-99.087095,,,0,,0,
STOP_14214,,Pantitlán,"Metro. Línea 5, correspondencia con líneas 1, 9 y A.",19.41528826,-99.07505035,,,0,,0,
STOP_14215,,Pantitlán,"Metro. Línea A, correspondencia con líneas 1, 5 y 9.",19.4146103,-99.07262564,,,0,,0,
STOP_14216,,Pantitlán,"Metro. Línea 1, correspondencia con líneas 5, 9 y A.",19.41616858,-99.07434225,,,0,,0,
STOP_14217,,Zaragoza,Metro. Línea 1,19.41179726,-99.08322573,,,0,,0,
STOP_14219,,Bosque de Aragón,Metro. Línea B,19.45807473,-99.06927824,,,0,,0,
STOP_14220,,Deportivo Oceanía,Metro. Línea B,19.45077077,-99.07917023,,,0,,0,
STOP_14221,,Múzquiz,Metro. Línea B,19.50096117,-99.04171586,,,0,,0,
STOP_14222,,Río de los Remedios,Metro. Línea B,19.49024062,-99.04635072,,,0,,0,
STOP_14223,,Impulsora,Metro. Línea B,19.484987,-99.048743,,,0,,0,
STOP_14224,,Olímpica,Metro. Línea B,19.52084286,-99.03298259,,,0,,0,
STOP_14225,,Tecnológico,Metro. Línea B,19.51470467,-99.03568625,,,0,,0,
STOP_14226,,Pantitlán,"Metro. Línea 9, correspondencia con líneas 1, 5 y A.",19.414885,-99.072516,,,0,,0,
STOP_14227,,Tláhuac,Metro. Línea 12,19.28680057,-99.01443243,,,0,,0,
STOP_14228,,Tlaltenco,Metro. Línea 12,19.294555,-99.023829,,,0,,0,
STOP_14229,,Zapotitlán,Metro. Línea 12,19.29639028,-99.03402328,,,0,,0,
STOP_14230,,Nopalera,Metro. Línea 12,19.29939771,-99.04621124,,,0,,0,
STOP_14231,,Olivos,Metro. Línea 12,19.30328601,-99.05831337,,,0,,0,
STOP_14232,,Tezonco,Metro. Línea 12,19.306124,-99.065867,,,0,,0,
STOP_14233,,Periférico Ote,Metro. Línea 12,19.317492,-99.074719,,,0,,0,
STOP_14234,,Calle 11,Metro. Línea 12,19.32025578,-99.08486724,,,0,,0,
STOP_14235,,Lomas Estrella,Metro. Línea 12,19.322002,-99.096696,,,0,,0,
STOP_14236,,San Andrés Tomatlán,Metro. Línea 12,19.3272315,-99.10259128,,,0,,0,
STOP_14237,,Culhuacán,Metro. Línea 12,19.33887391,-99.10894275,,,0,,0,
STOP_14238,,Mexicaltzingo,Metro. Línea 12,19.35744944,-99.12191391,,,0,,0,
STOP_14239,,Eje Central,Metro. Línea 12,19.36118453,-99.15133238,,,0,,0,
STOP_14240,,Parque de los Venados,Metro. Línea 12,19.37046623,-99.15766239,,,0,,0,
STOP_14241,,Hospital 20 de Nov.,Metro. Línea 12,19.37192372,-99.17099833,,,0,,0,
STOP_14242,,Insurgentes Sur,Metro. Línea 12,19.37360387,-99.17859435,,,0,,0,
STOP_15154,,Consulado,"Metro. Línea 5, correspondencia con línea 4.",19.455485,-99.11348104,,,0,,0,
STOP_42338,,Salto del Agua,"Metro. Línea 1, correspondencia con línea 8.",19.42698509,-99.14331794,,,0,Salto_del_Agua,0,
STOP_42427,,Atlalilco,"Metro. Línea 12, correspondencia con línea 8.",19.35264126,-99.10632491,,,0,,0,
STOP_42430,,Ermita,Metro. Línea 12,19.36030391,-99.1448307,,,0,,0,
STOP_42432,,Zapata,"Metro. Línea 12, correspondencia con línea 3.",19.3705472,-99.16540861,,,0,Zapata,0,
STOP_42487,,Candelaria,"Metro. Línea 4, correspondencia con línea 1.",19.42917056,-99.11890984,,,0,Candelaria,0,
STOP_42489,,Instituto del Petroleo,"Metro. Línea 6, correspondencia con línea 5.",19.49054404,-99.14638638,,,0,,0,
Tacuba,,Tacuba,Parent station metro,19.45895483,-99.18827176,,,1,,,
Tacubaya,,Tacubaya,Parent station metro,19.40258875,-99.18726325,,,1,,,
Zapata,,Zapata,Parent station metro,19.37062817,-99.16486144,,,1,,,
STOP_132166,,M. Tacubaya,Inicia frente al metro Tacubaya sobre calle Carlos Lazo,19.40232565,-99.18885112,,,0,,0,
STOP_132167,,Parque Lira,Sobre Av. Observatorio,19.40398524,-99.18751001,,,0,,0,
STOP_132168,,Gob. Agustín Vicente Eguia,Sobre Parque Lira,19.40752701,-99.18937683,,,0,,0,
STOP_132169,,Gral. Francisco Leyva,Sobre Av. Texcoco,19.39119378,-99.03739214,,,0,,0,
STOP_132170,,Ángel Trias (Base),Sobre Gral. Francisco Arce.,19.39016151,-99.03609395,,,0,,0,
STOP_132180,,Domingo Arellano,Sobre  Av. Texcoco,19.39257012,-99.0404284,,,0,,0,
STOP_132208,,Metro Chapultepec,Inicio de Recorrido,19.42106595,-99.17555809,,,0,,0,
STOP_132209,,Tolstoi,,19.42497159,-99.17829394,,,0,,0,
STOP_132211,,Gandhi,,19.4255888,-99.18987036,,,0,,0,
STOP_132212,,Rubén Darío,,19.4257608,-99.19106126,,,0,,0,
STOP_132213,,Auditorio Nacional,,19.42615541,-99.19355035,,,0,,0,
STOP_132215,,Gandhi,,19.42533584,-99.19043899,,,0,,0,
STOP_132216,,Zoológico II,,19.42567986,-99.19248819,,,0,,0,
STOP_132217,,Auditorio Nacional,,19.42619588,-99.1960609,,,0,,0,
STOP_132218,,Julio Verne,,19.42643871,-99.19763803,,,0,,0,
STOP_132219,,Anatole France,,19.42657025,-99.19860363,,,0,,0,
STOP_132220,,Fuente de Petróleos,,19.42793618,-99.20219779,,,0,,0,
STOP_132221,,Montes Urales,,19.42708627,-99.2049551,,,0,,0,
STOP_132222,,Prado Sur,,19.42652978,-99.20589924,,,0,,0,
STOP_132223,,Prado Norte,,19.42709639,-99.20574903,,,0,,0,
STOP_132224,,Av. Volcán,,19.42910985,-99.20740128,,,0,,0,
STOP_132225,,Coordillera de los Ándes,,19.42962586,-99.20984745,,,0,,0,
STOP_132226,,Monte Urales,,19.42748087,-99.20497656,,,0,,0,
STOP_132227,,Monte Altai,,19.4250323,-99.20895696,,,0,,0,
STOP_132228,,Monte Altai,,19.42462758,-99.20907497,,,0,,0,
STOP_132229,,Paseo de la Reforma,,19.42506266,-99.20912862,,,0,,0,
STOP_132230,,Alpes,,19.4267119,-99.21034098,,,0,,0,
STOP_132231,,Prado Norte,,19.428007,-99.21096325,,,0,,0,
STOP_132232,,Explanada,,19.42411155,-99.2111671,,,0,,0,
STOP_132233,,Monte Himalaya,,19.42411155,-99.21264768,,,0,,0,
STOP_132234,,Monte Himalaya,,19.4236967,-99.21269059,,,0,,0,
STOP_132235,,Monte Everest,,19.42321103,-99.21469688,,,0,,0,
STOP_132236,,Monte Blanco,,19.42279618,-99.21632767,,,0,,0,
STOP_132237,,Monte Blanco,,19.42323127,-99.21630621,,,0,,0,
STOP_132238,,Sierra Nevada,,19.42417226,-99.21672463,,,0,,0,
STOP_132239,,Alpes,,19.42486029,-99.21722889,,,0,,0,
STOP_132240,,Monte Tabor,,19.42831054,-99.21693921,,,0,,0,
STOP_132241,,Monte Sinaí,,19.42887714,-99.21596289,,,0,,0,
STOP_132242,,Monte Stanovoi,,19.42951457,-99.21387076,,,0,,0,
STOP_132243,,Monte Stanovoi,,19.42990916,-99.2136991,,,0,,0,
STOP_132244,,Torre Palmas,,19.42967645,-99.21510458,,,0,,0,
STOP_132245,,Monte Tabor,,19.42878608,-99.21693921,,,0,,0,
STOP_132246,,Sierra Mayca,,19.42771358,-99.21815157,,,0,,0,
STOP_132247,,Montañas Calizas,,19.42566974,-99.21913862,,,0,,0,
STOP_132248,,Paseo de las Palmas,,19.42712674,-99.21919227,,,0,,0,
STOP_132249,,Sierra Gorda,,19.42708627,-99.21939611,,,0,,0,
STOP_132250,,Sierra Gorda,,19.42755169,-99.21929955,,,0,,0,
STOP_132251,,Puente de Tecamachalco,,19.42889738,-99.22296882,,,0,,0,
STOP_132252,,Sierra Ventana,,19.42619588,-99.2213273,,,0,,0,
STOP_132253,,Cofre de Perote,,19.42614529,-99.22183156,,,0,,0,
STOP_132254,,Monte Chimborazo,,19.42424309,-99.2222929,,,0,,0,
STOP_132255,,Monte Chimborazo,,19.42462758,-99.22258258,,,0,,0,
STOP_132257,,Sierra Vertientes,,19.42284677,-99.22319412,,,0,,0,
STOP_132258,,Aconcagua,,19.42045885,-99.22481418,,,0,,0,
STOP_132259,,Aconcagua,,19.42104571,-99.22458887,,,0,,0,
STOP_132260,,Monte Antuco,,19.41896131,-99.22663808,,,0,,0,
STOP_132261,,Monte Antuco,,19.41937617,-99.22676682,,,0,,0,
STOP_132262,,Monte Ararat,,19.41730187,-99.22798991,,,0,,0,
STOP_132263,,Monte Ararat,,19.41772685,-99.22814012,,,0,,0,
STOP_132264,,Monte Líbano,,19.41602692,-99.22911644,,,0,,0,
STOP_132265,,Monte Líbano,,19.41569301,-99.22883749,,,0,,0,
STOP_132266,,Paseo de las Palmas.,,19.4158549,-99.22918081,,,0,,0,
STOP_132267,,Montañas Calizas,,19.42264441,-99.22287226,,,0,,0,
STOP_132268,,Sierra Vertientes,,19.41686677,-99.23075795,,,0,,0,
STOP_132269,,Sierra Tarahumara,,19.41445852,-99.22959924,,,0,,0,
STOP_132270,,Sierra Tarahumara,,19.41362878,-99.22940612,,,0,,0,
STOP_132271,,Montañas Rocallosas.,,19.41205023,-99.22994256,,,0,,0,
STOP_132272,,Montañas Rocallosas,,19.41180738,-99.22955632,,,0,,0,
STOP_132273,,Monte Auvernia,,19.40915619,-99.22968507,,,0,,0,
STOP_132274,,Monte Auvernia,,19.40912583,-99.22934175,,,0,,0,
STOP_132275,,Sierra Grande,,19.40756748,-99.22861218,,,0,,0,
STOP_132277,,Sierra Ixtlán,,19.4065252,-99.22679901,,,0,,0,
STOP_132278,,Bosque de Auvernia,,19.40702104,-99.22364473,,,0,,0,
STOP_132281,,Montañas Rocallosas,,19.41151393,-99.22094107,,,0,,0,
STOP_132282,,Sierra Tarahumara,,19.41313295,-99.21984673,,,0,,0,
STOP_132285,,Sierra Bacatete,,19.41515671,-99.21899915,,,0,,0,
STOP_132286,,Monte Líbano,,19.41786851,-99.21806574,,,0,,0,
STOP_132288,,Montes Pirineos,,19.42046896,-99.21763659,,,0,,0,
STOP_132290,,Sierra Vertientes,,19.40580673,-99.2288053,,,0,,0,
STOP_132291,,Glorieta de Bosques,,19.40659604,-99.23364401,,,0,,0,
STOP_132293,,Bosque de Chihuahua,,19.41026929,-99.23543572,,,0,,0,
STOP_132294,,Bosque de Ciruelos,,19.40918655,-99.237957,,,0,,0,
STOP_132297,,Bosque de Duraznos,,19.40767879,-99.24014568,,,0,,0,
STOP_132298,,Bosque de Sándalos,,19.40707164,-99.24075723,,,0,,0,
STOP_132300,,Bosque de Mangos,,19.40490611,-99.24286008,,,0,,0,
STOP_132303,,Bosque de Capulines,,19.40208278,-99.2455852,,,0,,0,
STOP_132304,,Bosque de Maples,,19.40130357,-99.24634695,,,0,,0,
STOP_132307,,Bosques de Abedules,,19.39821706,-99.24916863,,,0,,0,
STOP_132309,,Bosques de Abedules,,19.39681041,-99.25237656,,,0,,0,
STOP_132310,,Bosques Colorines,,19.39635501,-99.25409317,,,0,,0,
STOP_132312,,Bosques de Castilloas,,19.39514062,-99.25651789,,,0,,0,
STOP_132315,,Bosques de Cacao,,19.39211471,-99.25939322,,,0,,0,
STOP_132317,,Fábrica de Armas,,19.39001982,-99.25962925,,,0,,0,
STOP_132319,,Fábrica de Cartuchos,,19.38834997,-99.26254749,,,0,,0,
STOP_132323,,Royal Reforma,,19.38553647,-99.2634058,,,0,,0,
STOP_132326,,Secretaría de Marina,,19.38377548,-99.26606655,,,0,,0,
STOP_132328,,Pabellón Bosques,,19.38143758,-99.26691413,,,0,,0,
STOP_132330,,Bosque de Toronjos,,19.38034453,-99.26518679,,,0,,0,
STOP_132332,,Bosque de Teponaztles,,19.38282413,-99.26202178,,,0,,0,
STOP_132333,,Bosque de Zarzas,,19.38513165,-99.25932884,,,0,,0,
STOP_132335,,Bosque de Tejocotes,,19.3868825,-99.2571187,,,0,,0,
STOP_132337,,Bosque de Yucas,,19.38907863,-99.25430775,,,0,,0,
STOP_132339,,Bosque de Tabachines,,19.39024247,-99.25253749,,,0,,0,
STOP_132346,,Bosque de Alisos,,19.38778322,-99.25153971,,,0,,0,
STOP_132348,,Paseo de los Tamarindos,,19.38649792,-99.25352454,,,0,,0,
STOP_132350,,Prolongación Reforma (Túnel),,19.37604309,-99.26131368,,,0,,0,
STOP_132352,,Priv. Palo Alto,,19.38002066,-99.25946832,,,0,,0,
STOP_132355,,Bosque de Radiatas,,19.38386657,-99.25734401,,,0,,0,
STOP_132356,,Sierra Breña,,19.40312509,-99.23063993,,,0,,0,
STOP_132357,,Castillo de Windsor,,19.40257864,-99.23157334,,,0,,0,
STOP_132358,,Castillo de Chapultepec,,19.39979574,-99.23401952,,,0,,0,
STOP_132359,,Castillo de Chapultepec,,19.39940107,-99.23394442,,,0,,0,
STOP_132360,,Rivera de Cupia,,19.39695208,-99.23729181,,,0,,0,
STOP_132361,,Rivera de Cupia,,19.39658777,-99.23725963,,,0,,0,
STOP_132362,,Castillo de Miramar,,19.39848018,-99.23483491,,,0,,0,
STOP_132363,,Paseo de la Reforma,,19.39495846,-99.23910499,,,0,,0,
STOP_132364,,Constituyentes,,19.39371369,-99.23977017,,,0,,0,
STOP_132365,,Puente Conafrut,,19.38735816,-99.24287081,,,0,,0,
STOP_132366,,Puente Conafrut,,19.38699383,-99.24250603,,,0,,0,
STOP_132367,,Bosque de Duraznos ,,19.40503766,-99.24127221,,,0,,0,
STOP_132368,,Bosque de Duraznos I,,19.40258875,-99.24319267,,,0,,0,
STOP_132369,,Bosque de Duraznos II,,19.40400548,-99.24014568,,,0,,0,
STOP_132370,,Parque Duraznos,,19.4081544,-99.23802137,,,0,,0,
STOP_132883,,Gob. J. Cortina,,19.4076282,-99.18745637,,,0,,0,
STOP_132885,,Avenida Jalisco,,19.40769903,-99.18449521,,,0,,0,
STOP_132890,,Carlos B Zetina,,19.40708176,-99.18259621,,,0,,0,
STOP_132891,,Gral Fco Alvarado (Metro Patriotismo),,19.40590792,-99.17904496,,,0,,0,
STOP_132893,,Agricultura,,19.40504778,-99.1763413,,,0,,0,
STOP_132894,,Mineria,,19.40351975,-99.17592287,,,0,,0,
STOP_132895,,Benjamin Franklin (Eje 4 Sur),,19.40458229,-99.17532206,,,0,,0,
STOP_132896,,Baja California (Eje 3 Sur),,19.4056347,-99.17498946,,,0,,0,
STOP_132897,,Nuevo León,,19.40572578,-99.17208195,,,0,,0,
STOP_132898,,Chilpancingo (Metro Chilpacingo),,19.40580673,-99.16934609,,,0,,0,
STOP_132899,,Tlacotalpan,,19.40588768,-99.16648149,,,0,,0,
STOP_132900,,Medellin (Eje 3 Pte),,19.40603947,-99.16332722,,,0,,0,
STOP_132901,,Linares,,19.40619126,-99.1604948,,,0,,0,
STOP_132902,,Cuauhtémoc (Eje 1 Pte),,19.40645437,-99.15538788,,,0,,0,
STOP_132903,,Doctor Jiménez,,19.40663651,-99.15155768,,,0,,0,
STOP_132904,,Doctor Andrade,,19.40682878,-99.14823174,,,0,,0,
STOP_132905,,Lázaro Cárdenas Eje Central,,19.40704128,-99.14481997,,,0,,0,
STOP_132906,,Bolivar,,19.40722343,-99.14233088,,,0,,0,
STOP_132907,,Isabel la Católica,,19.40740557,-99.13971305,,,0,,0,
STOP_132908,,5 de Febrero,,19.40755736,-99.13778186,,,0,,0,
STOP_132909,,Oriente 67,,19.40860976,-99.13053989,,,0,,0,
STOP_132910,,José Antonio Torres,,19.40842761,-99.13312554,,,0,,0,
STOP_132911,,Calzada de la Viga (Eje 2 Ote),,19.40885262,-99.12706375,,,0,,0,
STOP_132912,,Torno,,19.40881214,-99.12467122,,,0,,0,
STOP_132913,,H Congreso de la Unión,,19.40902464,-99.1220212,,,0,,0,
STOP_132914,,Nicolás Bravo,,19.40899428,-99.11995053,,,0,,0,
STOP_132915,,Industria,,19.40853892,-99.11550879,,,0,,0,
STOP_132916,,Francisco del Paso y Troncoso (Eje 3 Ote),,19.4083163,-99.11359906,,,0,,0,
STOP_132917,,Fernando Iglesias,,19.40826571,-99.10946846,,,0,,0,
STOP_132918,,Radames Treviño,,19.40827583,-99.10441518,,,0,,0,
STOP_132919,,Atletas,,19.40665675,-99.10273075,,,0,,0,
STOP_132920,,Pemex (Frente a Palacio de los Deportes),,19.40329712,-99.10089612,,,0,,0,
STOP_132921,,Circuito Bicentenario Río Churubusco,,19.40281138,-99.09844995,,,0,,0,
STOP_132922,,Vainilla,,19.40023089,-99.09871817,,,0,,0,
STOP_132923,,Plutarco Elías Calles ,,19.39715448,-99.09916878,,,0,,0,
STOP_132925,,Centeno,,19.39957311,-99.09801006,,,0,,0,
STOP_132926,,Añil (Eje 3 Sur),,19.40257864,-99.09760237,,,0,,0,
STOP_132927,,Puerta 10 Foro Sol,,19.4054222,-99.09724832,,,0,,0,
STOP_132928,,Puerta 4A,,19.40869071,-99.09569263,,,0,,0,
STOP_132929,,Puerta 5 Ciudad Deportiva,,19.40825559,-99.090693,,,0,,0,
STOP_132930,,Estación Metro Puebla,,19.40703116,-99.08272147,,,0,,0,
STOP_132931,,Canal de Río Churubusco,,19.40679842,-99.0786767,,,0,,0,
STOP_132932,,Sur 4,,19.40400548,-99.07817245,,,0,,0,
STOP_132933,,Sur 8,,19.40126309,-99.07936335,,,0,,0,
STOP_132934,,Oriente 233,,19.40079759,-99.0774858,,,0,,0,
STOP_132935,,Oriente 237,,19.40036244,-99.07482505,,,0,,0,
STOP_132936,,Javier Rojo Gómez Eje 5 Ote,,19.39996778,-99.0722394,,,0,,0,
STOP_132937,,Oriente 245,,19.39950227,-99.06962156,,,0,,0,
STOP_132938,,Oriente 249,,19.3991076,-99.06707883,,,0,,0,
STOP_132939,,Oriente 253,,19.39871293,-99.06458974,,,0,,0,
STOP_132940,,Oriente 257,,19.39827778,-99.06217575,,,0,,0,
STOP_132941,,Sur 12,,19.39577817,-99.06264782,,,0,,0,
STOP_132942,,Sur 16,,19.39298505,-99.06328082,,,0,,0,
STOP_132943,,Sur 20,,19.39069788,-99.06375289,,,0,,0,
STOP_132944,,Oriente 259,,19.38993886,-99.06226158,,,0,,0,
STOP_132945,,Canal de San Juan,,19.38959477,-99.05998707,,,0,,0,
STOP_132946,,Frente a Secundaria Oficial,,19.38916972,-99.05861378,,,0,,0,
STOP_132949,,Gral. Antonio de León Loyola,,19.38492923,-99.0521872,,,0,,0,
STOP_132950,,Frente a Panadería León,,19.3882184,-99.05715466,,,0,,0,
STOP_132951,,Gral Antonio de León (2° Semáforo),,19.38744925,-99.0503633,,,0,,0,
STOP_132952,,Priv. A de León Loyola,,19.39088005,-99.04829264,,,0,,0,
STOP_132954,,Frente a Clínica ISSSTE Zaragoza,,19.38903815,-99.0463078,,,0,,0,
STOP_132955,,Avenida Texcoco,,19.39381489,-99.04327154,,,0,,0,
STOP_132956,,Avenida Observatorio,,19.40419775,-99.18800354,,,0,,0,
STOP_132957,,Parque Lira (MB),,19.40787106,-99.18940902,,,0,,0,
STOP_132958,,Gral. José Morán,,19.40909548,-99.19011712,,,0,,0,
STOP_132959,,Gral. J. Cano,,19.40930798,-99.18601871,,,0,,0,
STOP_132960,,Gob. Ignacio Esteva,,19.41094726,-99.18784261,,,0,,0,
STOP_132962,,Gral. Pedro A. de los Santos,,19.40934845,-99.18379784,,,0,,0,
STOP_132963,,Chicontepec,,19.41017822,-99.18280005,,,0,,0,
STOP_132964,,Patriotismo,,19.41077524,-99.1812551,,,0,,0,
STOP_132965,,Mazatlán,,19.4101681,-99.18004274,,,0,,0,
STOP_132966,,Zitácuaro,,19.40970262,-99.17920589,,,0,,0,
STOP_132967,,Tamaulipas,,19.40854904,-99.17688847,,,0,,0,
STOP_132968,,Saltillo,,19.40737522,-99.17452812,,,0,,0,
STOP_132969,,Altata,,19.40649484,-99.17274714,,,0,,0,
STOP_132970,,Campeche,,19.40826571,-99.17182446,,,0,,0,
STOP_132971,,Chilpancingo,,19.40849845,-99.16993618,,,0,,0,
STOP_132972,,Insurgentes Sur,,19.40911571,-99.16768312,,,0,,0,
STOP_132973,,Medellín (Eje 3 Pte),,19.40986453,-99.16421771,,,0,,0,
STOP_132974,,Gob. José Ma. Tornel,,19.41298117,-99.18702722,,,0,,0,
STOP_132975,,Constituyentes,,19.41446864,-99.18644786,,,0,,0,
STOP_132976,,Gral. Juan Cano,,19.41568289,-99.18391585,,,0,,0,
STOP_132977,,Gral. Pedro Antonio de los Santos,,19.41642155,-99.18104053,,,0,,0,
STOP_132978,,Zamora,,19.41646203,-99.1781652,,,0,,0,
STOP_132979,,Cuernavaca,,19.41489363,-99.17508602,,,0,,0,
STOP_132980,,Tamaulipas,,19.41353771,-99.17242527,,,0,,0,
STOP_132981,,Sonora,,19.41565253,-99.17008638,,,0,,0,
STOP_132982,,Yucatán,,19.41658345,-99.16751146,,,0,,0,
STOP_132983,,Insurgentes Sur ,,19.41703879,-99.16512966,,,0,,0,
STOP_132984,,Tonalá,,19.41752448,-99.1625762,,,0,,0,
STOP_132985,,Zacatecas,,19.41542992,-99.16202903,,,0,,0,
STOP_132986,,Monterrey,,19.41022881,-99.16234016,,,0,,0,
STOP_132987,,Jalapa,,19.41070441,-99.15982962,,,0,,0,
STOP_132988,,Orizaba,,19.41164547,-99.15823102,,,0,,0,
STOP_132989,,Coahuila,,19.41253594,-99.15576339,,,0,,0,
STOP_132990,,San Luis Potosí,,19.41459006,-99.15626764,,,0,,0,
STOP_132991,,Merida,,19.41547039,-99.15663242,,,0,,0,
STOP_132992,,Orizaba,,19.41497458,-99.15912151,,,0,,0,
STOP_132993,,Frontera,,19.41576384,-99.15513039,,,0,,0,
STOP_132994,,Niños Héroes,,19.41561206,-99.15099978,,,0,,0,
STOP_132995,,Dr. Vértiz,,19.41544004,-99.14838195,,,0,,0,
STOP_132996,,Dr. Andrade,,19.41529838,-99.14667606,,,0,,0,
STOP_132997,,Eje Central (Lázaro Cárdenas),,19.41511624,-99.14392948,,,0,,0,
STOP_132998,,Bolívar,,19.41490374,-99.141258,,,0,,0,
STOP_132999,,Isabel la Católica,,19.41474184,-99.13881183,,,0,,0,
STOP_133000,,5 de Febrero,,19.41429662,-99.13702011,,,0,,0,
STOP_133001,,Xocongo,,19.4132139,-99.13279295,,,0,,0,
STOP_133002,,Juan A. Mateos,,19.41018834,-99.13332939,,,0,,0,
STOP_133003,,José Antonio Torres,,19.40855916,-99.13336158,,,0,,0,
STOP_133004,,Topacio,,19.40885262,-99.12988544,,,0,,0,
STOP_133005,,La Viga (Eje 2 Ote),,19.4090044,-99.12659168,,,0,,0,
STOP_133006,,Torno,,19.40899428,-99.12410259,,,0,,0,
STOP_133007,,H Congreso de la Unión ,,19.40925738,-99.12148476,,,0,,0,
STOP_133008,,Nicolás Bravo,,19.40916631,-99.11974669,,,0,,0,
STOP_133009,,General Montaño,,19.40873119,-99.11581993,,,0,,0,
STOP_133010,,Francisco del Paso y Troncoso (Eje 3 Ote),,19.40843773,-99.11292315,,,0,,0,
STOP_133011,,Fernando Iglesias,,19.40844785,-99.10920024,,,0,,0,
STOP_133012,,2° Puente Peatonal,,19.40685914,-99.10742998,,,0,,0,
STOP_133013,,1er Puente Peatonal,,19.40630258,-99.11019802,,,0,,0,
STOP_133014,,Clínica IMSS,,19.40573589,-99.11285877,,,0,,0,
STOP_133015,,Viaducto Río de la Piedad,,19.40646448,-99.11375999,,,0,,0,
STOP_133016,,Radames Treviño,,19.40842761,-99.10474777,,,0,,0,
STOP_133017,,Estación Metro Velodromo (Frente a la ESEF),,19.40806332,-99.1018939,,,0,,0,
STOP_133018,,Escuela Superior de Educación Fisica,,19.4062115,-99.1025269,,,0,,0,
STOP_133019,,Palacio de los Deporte Puerta 6,,19.40431918,-99.10151839,,,0,,0,
STOP_133020,,Palacio de los Deportes,,19.40305425,-99.09909368,,,0,,0,
STOP_133021,,Circuito Bicentenario Río Churubusco,,19.40279114,-99.09753799,,,0,,0,
STOP_133023,,Resina,,19.4020423,-99.09238815,,,0,,0,
STOP_133024,,Centeno,,19.39850042,-99.08882618,,,0,,0,
STOP_133025,,Canela,,19.39640561,-99.08910513,,,0,,0,
STOP_133026,,Trigo,,19.39490786,-99.08849359,,,0,,0,
STOP_133027,,Canal de Río Churubusco,,19.39368333,-99.0862298,,,0,,0,
STOP_133028,,Oriente 217,,19.39258024,-99.08386946,,,0,,0,
STOP_133030,,Sur 20,,19.39343033,-99.08160567,,,0,,0,
STOP_133031,,Oriente 229,,19.39336961,-99.08145547,,,0,,0,
STOP_133032,,Oriente 233,,19.39302553,-99.07920241,,,0,,0,
STOP_133033,,Oriente 233,,19.39290409,-99.07951355,,,0,,0,
STOP_133034,,Sur 16,,19.39596033,-99.08101559,,,0,,0,
STOP_133035,,Sur 16,,19.39575794,-99.08095121,,,0,,0,
STOP_133036,,Sur 12,,19.39862185,-99.08044696,,,0,,0,
STOP_133037,,Sur 12,,19.39841946,-99.08039331,,,0,,0,
STOP_133038,,Sur 8,,19.40104046,-99.07933116,,,0,,0,
STOP_133039,,Oriente 229,,19.40117202,-99.07918096,,,0,,0,
STOP_133040,,Oriente 233,,19.40086843,-99.07721758,,,0,,0,
STOP_133041,,Oriente 237,,19.40042316,-99.07456756,,,0,,0,
STOP_133042,,Javier Rojo Gómez Eje 5 Ote,,19.4000285,-99.07190681,,,0,,0,
STOP_133043,,Oriente 245,,19.39955287,-99.06920314,,,0,,0,
STOP_133044,,Oriente 249,,19.39917844,-99.06689644,,,0,,0,
STOP_133045,,Oriente 253,,19.39877365,-99.06431079,,,0,,0,
STOP_133046,,Sur 8,,19.39822718,-99.0617466,,,0,,0,
STOP_133047,,Sur 12,,19.39549482,-99.06231523,,,0,,0,
STOP_133048,,Sur 16,,19.39274216,-99.06292677,,,0,,0,
STOP_133049,,Oriente 237,,19.39239808,-99.07658458,,,0,,0,
STOP_133050,,Oriente 237,,19.39252964,-99.07637,,,0,,0,
STOP_133051,,Javier Rojo Gómez (Eje 5 Ote),,19.39196291,-99.07404184,,,0,,0,
STOP_133052,,Javier Rojo Gómez (Eje 5 Ote),,19.39207423,-99.07375216,,,0,,0,
STOP_133053,,Oriente 245,,19.39151762,-99.07147765,,,0,,0,
STOP_133054,,Oriente 245,,19.39165931,-99.07128453,,,0,,0,
STOP_133055,,Oriente 249,,19.39109257,-99.06892419,,,0,,0,
STOP_133056,,Ret 2 de Sur 16,,19.39100149,-99.06782985,,,0,,0,
STOP_133057,,Oriente 253,,19.39063716,-99.06633854,,,0,,0,
STOP_133058,,Oriente 255,,19.39039428,-99.06421423,,,0,,0,
STOP_133059,,Oriente 257,,19.39024247,-99.06395674,,,0,,0,
STOP_133060,,Oriente 259,,19.39009067,-99.06202555,,,0,,0,
STOP_133061,,Canal de San Juan,,19.38964537,-99.05891418,,,0,,0,
STOP_133062,,Frente a Panaderia León,,19.38829936,-99.05691862,,,0,,0,
STOP_133065,,Aldama,,19.38705455,-99.05506253,,,0,,0,
STOP_133066,,Frente Calle Aldama,,19.38703431,-99.05535221,,,0,,0,
STOP_133068,,Constitución de Apatzingan,,19.3853037,-99.05243397,,,0,,0,
STOP_133069,,Miguel Hidalgo,,19.38778322,-99.05088902,,,0,,0,
STOP_133070,,Mina,,19.38961501,-99.04983759,,,0,,0,
STOP_133071,,General Antonio de León Loyola,,19.39092053,-99.04819608,,,0,,0,
STOP_133072,,CETRAM Tepalcates,,19.39039428,-99.04729486,,,0,,0,
STOP_133073,,Bahía del Cuerpo Oriente,,19.39010079,-99.04657602,,,0,,0,
STOP_133074,,Avenida TELECOM,,19.38750997,-99.04717684,,,0,,0,
STOP_133075,,Emilio Balli,,19.38680154,-99.04395819,,,0,,0,
STOP_133076,,Emilio Azcarraga Vidaurreta,,19.38487863,-99.04123306,,,0,,0,
STOP_133077,,Enrique Contel,,19.3832492,-99.03945208,,,0,,0,
STOP_133078,,J. Crisostomo Bonilla,,19.38967573,-99.03508544,,,0,,0,
STOP_133079,,Ángel Trias Base,,19.39016151,-99.0358901,,,0,,0,
STOP_133206,,Viaducto Río de la Piedad,,19.40675794,-99.08131599,,,0,,0,
STOP_133207,,Oriente 217B,,19.40454181,-99.08051133,,,0,,0,
STOP_133208,,Sur 2A,,19.4056853,-99.07924533,,,0,,0,
STOP_133209,,Sur 4,,19.40409656,-99.07974958,,,0,,0,
STOP_133210,,Río Churubusco,,19.40181967,-99.08123016,,,0,,0,
STOP_133274,,Estación Metro Puebla,,19.40738534,-99.0825069,,,0,,0,
STOP_133485,,Isabel la Católica,,19.40759784,-99.13941264,,,0,,0,
STOP_133487,,Bolivar,,19.40740557,-99.14204121,,,0,,0,
STOP_133488,,Lázaro Cárdenas Eje Central,,19.40723355,-99.14451957,,,0,,0,
STOP_133489,,Doctor Andrade,,19.40703116,-99.14796352,,,0,,0,
STOP_133490,,Doctor Jiménez,,19.40685914,-99.15135384,,,0,,0,
STOP_133491,,Cuauhtémoc (Eje 1 Pte),,19.40664663,-99.15506601,,,0,,0,
STOP_133492,,Toluca,,19.40655556,-99.15680408,,,0,,0,
STOP_133493,,Monterrey (Eje 2 Pte),,19.40630258,-99.16104198,,,0,,0,
STOP_133494,,Medellin (Eje 3 Pte),,19.40618114,-99.16311264,,,0,,0,
STOP_133495,,Tlacotalpan,,19.40607995,-99.16630983,,,0,,0,
STOP_133496,,Chilpancingo (Metro Chilpacingo),,19.405999,-99.16825175,,,0,,0,
STOP_133497,,Nuevo León,,19.40590792,-99.17158842,,,0,,0,
STOP_133499,,Saltillo,,19.40580673,-99.17487144,,,0,,0,
STOP_133500,,Metro Patriotismo,,19.40633293,-99.17921662,,,0,,0,
STOP_133501,,Carlos B. Zetina,,19.40733474,-99.18228507,,,0,,0,
STOP_133502,,José Vasconcelos,,19.40787106,-99.18388367,,,0,,0,
STOP_133503,,Joaquin A Pérez,,19.40799249,-99.18535352,,,0,,0,
STOP_133504,,Gob. J. Cortina,,19.40792165,-99.18724179,,,0,,0,
STOP_133639,,Avenida Té (Eje 4 Sur),,19.39651693,-99.09848213,,,0,,0,
STOP_134668,,Norte 180,,19.43912624,-99.08796787,,,0,,0,
STOP_134669,,Avenida Oceanía,,19.44112944,-99.09312844,,,0,,0,
STOP_134670,,Marruecos ,,19.44154424,-99.09349322,,,0,,0,
STOP_134671,,Av. África,,19.44483226,-99.09320354,,,0,,0,
STOP_134672,,Damasco,,19.44589453,-99.0967226,,,0,,0,
STOP_134673,,Carlos Marks,,19.44651166,-99.09959793,,,0,,0,
STOP_134674,,José Stalin,,19.44697703,-99.10185099,,,0,,0,
STOP_134675,,Avicultura,,19.44751322,-99.10411477,,,0,,0,
STOP_134676,,Floricultura,,19.4479887,-99.1063571,,,0,,0,
STOP_134677,,Rotograbados,,19.4484743,-99.10855651,,,0,,0,
STOP_134678,,Vulcanización,,19.44875757,-99.10982251,,,0,,0,
STOP_134679,,Bonanza,,19.44946573,-99.1132021,,,0,,0,
STOP_134680,,Congreso de la Unión ,,19.45000191,-99.11560535,,,0,,0,
STOP_134681,,Inde ,,19.4504875,-99.11780477,,,0,,0,
STOP_134682,,Coalcomán,,19.45121589,-99.12120581,,,0,,0,
STOP_134683,,Boleo,,19.45200498,-99.12464976,,,0,,0,
STOP_134684,,Frente a Jesús Carranza,,19.45302674,-99.12955284,,,0,,0,
STOP_134685,,Constantino,,19.45382593,-99.13389802,,,0,,0,
STOP_134686,,Eje Central (Abundio Martínez),,19.45477686,-99.13822174,,,0,,0,
STOP_134687,,Lerdo,,19.45525232,-99.14023876,,,0,,0,
STOP_134688,,Zoltán Kodali (Metro Tlatelolco),,19.45597058,-99.1434896,,,0,,0,
STOP_134689,,Insurgentes,,19.45714405,-99.14841413,,,0,,0,
STOP_134690,,Oyamel,,19.45790276,-99.15193319,,,0,,0,
STOP_134691,,Naranjo,,19.45874239,-99.15690064,,,0,,0,
STOP_134692,,Norte 172,,19.4396928,-99.08967376,,,0,,0,
STOP_134693,,Circuito Bicentenario (Av. Río Consulado),,19.45962248,-99.16217923,,,0,,0,
STOP_134694,,Fresno,,19.45907622,-99.1591537,,,0,,0,
STOP_134695,,Av. Jardín ,,19.45980457,-99.16338086,,,0,,0,
STOP_134696,,Plan de San Luis,,19.46039129,-99.16720033,,,0,,0,
STOP_134697,,Membrillo,,19.46083639,-99.16982889,,,0,,0,
STOP_134698,,Artemisa,,19.46242458,-99.17120218,,,0,,0,
STOP_134699,,Yuca,,19.46547952,-99.17303681,,,0,,0,
STOP_134700,,Av. Cuitláhuac,,19.46820059,-99.17584777,,,0,,0,
STOP_134701,,Salónica,,19.47046643,-99.17817593,,,0,,0,
STOP_134702,,Norte 87,,19.47174096,-99.17931318,,,0,,0,
STOP_134703,,Tula,,19.47364261,-99.18095469,,,0,,0,
STOP_134704,,22 de Febrero,,19.47763802,-99.18435574,,,0,,0,
STOP_134705,,Azcapotzalco,,19.47854835,-99.18687701,,,0,,0,
STOP_134706,,Aquiles Serdán ,,19.47900352,-99.18842196,,,0,,0,
STOP_134707,,Cuauhtémoc,,19.47928673,-99.189291,,,0,,0,
STOP_134708,,San Francisco,,19.48055107,-99.19062138,,,0,,0,
STOP_134709,,Santo Domingo,,19.48144115,-99.19306755,,,0,,0,
STOP_134710,,Tezozomoc,,19.48229078,-99.1973269,,,0,,0,
STOP_134711,,Francita ,,19.4832112,-99.20064211,,,0,,0,
STOP_134712,,Renacimiento,,19.48385853,-99.20316339,,,0,,0,
STOP_134713,,Manuel Salazar,,19.48528466,-99.2084527,,,0,,0,
STOP_134714,,Unidad Priv. San Isidro (Frente),,19.48608369,-99.21249747,,,0,,0,
STOP_134715,,Calzada de las Armas,,19.4875098,-99.21699286,,,0,,0,
STOP_134716,,Panteón San Isidro,,19.48927978,-99.21611309,,,0,,0,
STOP_134717,,Manuel Salazar,,19.48734798,-99.20828104,,,0,,0,
STOP_134718,,Calzada San Isidro,,19.48542626,-99.2087853,,,0,,0,
STOP_134719,,Renacimiento ,,19.48361578,-99.20339942,,,0,,0,
STOP_134721,,2da Cerrada de San Isidro,,19.48297857,-99.20096397,,,0,,0,
STOP_134722,,Tezozomoc,,19.48024763,-99.19887185,,,0,,0,
STOP_134723,,Santo Domingo,,19.47871019,-99.19456959,,,0,,0,
STOP_134724,,Ferrocarriles Nacionales,,19.47814376,-99.19021368,,,0,,0,
STOP_134725,,Manuel Acuña (Metro Camarones),,19.47886191,-99.19017076,,,0,,0,
STOP_134726,,Santa Apolonia (Metro Camarones),,19.47865961,-99.18946266,,,0,,0,
STOP_134727,,Av. Azcapotzalco,,19.47835617,-99.1871345,,,0,,0,
STOP_134728,,22 de Febrero,,19.47763802,-99.18469906,,,0,,0,
STOP_134729,,Nubia,,19.47418882,-99.18200612,,,0,,0,
STOP_134730,,Norte 87 B,,19.4729042,-99.18092251,,,0,,0,
STOP_134731,,San Lucas,,19.47092162,-99.17922735,,,0,,0,
STOP_134732,,Cuitláhuac,,19.46835233,-99.17662024,,,0,,0,
STOP_134733,,Norte 77,,19.46771505,-99.17595506,,,0,,0,
STOP_134734,,Norte 67,,19.46518617,-99.17342305,,,0,,0,
STOP_134735,,Poniente 54,,19.46268759,-99.17186737,,,0,,0,
STOP_134736,,Biólogo Maximino Martínez,,19.46105894,-99.17094469,,,0,,0,
STOP_134737,,Norte 67,,19.46151416,-99.17392731,,,0,,0,
STOP_134738,,Norte 73,,19.46178728,-99.17569757,,,0,,0,
STOP_134739,,Cuitláhuac,,19.46214134,-99.17748928,,,0,,0,
STOP_134740,,Irapuato (RCA Víctor),,19.46324396,-99.18170571,,,0,,0,
STOP_134741,,Boca Negra (RCA Víctor),,19.46358789,-99.18232799,,,0,,0,
STOP_134742,,Cuitláhuac,,19.46195925,-99.17791843,,,0,,0,
STOP_134743,,Norte 71,,19.46143323,-99.1753006,,,0,,0,
STOP_134744,,Calzada Camarones,,19.46065431,-99.17074084,,,0,,0,
STOP_134745,,Calzada los Gallos,,19.45675964,-99.16836977,,,0,,0,
STOP_134746,,Plan de Agua Prieta,,19.45628418,-99.16740417,,,0,,0,
STOP_134747,,Manuel Carpio,,19.45239952,-99.16657805,,,0,,0,
STOP_134748,,José Antonio Alzate,,19.44857547,-99.16689992,,,0,,0,
STOP_134750,,Circuito Bicentenario,,19.44815057,-99.16499019,,,0,,0,
STOP_134751,,Fresno,,19.44759415,-99.16142821,,,0,,0,
STOP_134752,,Santa María la Ribera,,19.44688598,-99.1574049,,,0,,0,
STOP_134753,,Insurgentes,,19.44624862,-99.15345669,,,0,,0,
STOP_134754,,Aldama,,19.44574278,-99.15054917,,,0,,0,
STOP_134755,,Guerrero,,19.44525717,-99.14752364,,,0,,0,
STOP_134756,,Zarco,,19.44487273,-99.1452384,,,0,,0,
STOP_134757,,Lerdo,,19.44446805,-99.14264202,,,0,,0,
STOP_134758,,Paseo de la Reforma,,19.44401279,-99.14002419,,,0,,0,
STOP_134759,,Callejón Rayón,,19.44375987,-99.13788915,,,0,,0,
STOP_134760,,Comonford,,19.44356765,-99.13536787,,,0,,0,
STOP_134761,,Aztecas,,19.44301121,-99.12879109,,,0,,0,
STOP_134762,,Vidal Alcocer,,19.44259641,-99.12317991,,,0,,0,
STOP_134763,,Congreso de la Unión,,19.43985468,-99.11833048,,,0,,0,
STOP_134764,,Ing. Eduardo Molina,,19.43943987,-99.11412477,,,0,,0,
STOP_134765,,Marmoleria,,19.43919706,-99.11168933,,,0,,0,
STOP_134766,,Av. del Peñón,,19.43896436,-99.10895348,,,0,,0,
STOP_134767,,Pirotécnia,,19.43966245,-99.10657167,,,0,,0,
STOP_134768,,Lucio Blanco,,19.44001655,-99.1040504,,,0,,0,
STOP_134769,,Cairo,,19.44130143,-99.10113215,,,0,,0,
STOP_134770,,Plaza África,,19.44251548,-99.09844995,,,0,,0,
STOP_134771,,Plaza África,,19.44327425,-99.09836411,,,0,,0,
STOP_134772,,Presia,,19.44445794,-99.0989542,,,0,,0,
STOP_134773,,Guanabana,,19.46051268,-99.16906714,,,0,,0,
STOP_134774,,Plan de San Luis,,19.4602699,-99.16752219,,,0,,0,
STOP_134775,,Circuito Bicentenario,,19.4595719,-99.16303754,,,0,,0,
STOP_134776,,Fresno,,19.45895483,-99.15932536,,,0,,0,
STOP_134777,,Naranjo,,19.45863111,-99.15710449,,,0,,0,
STOP_134778,,Geranio,,19.45737672,-99.14990544,,,0,,0,
STOP_134779,,Insurgentes,,19.45702266,-99.1485858,,,0,,0,
STOP_134783,,Guerrero,,19.45615267,-99.1450882,,,0,,0,
STOP_134784,,M. Tlatelolco,,19.4557379,-99.14307117,,,0,,0,
STOP_134785,,Lerdo,,19.45516128,-99.1405499,,,0,,0,
STOP_134786,,Eje Central,,19.45473639,-99.13879037,,,0,,0,
STOP_134787,,Eje Central II,,19.45434186,-99.13703084,,,0,,0,
STOP_134788,,Frente a Constantino,,19.45377535,-99.13442373,,,0,,0,
STOP_134789,,Paseo de la Reforma,,19.45322906,-99.13167715,,,0,,0,
STOP_134790,,Jesús Carranza,,19.45289522,-99.12969232,,,0,,0,
STOP_134791,,Tenochtitlán,,19.45262208,-99.12808299,,,0,,0,
STOP_134792,,Avenida del Trabajo,,19.45196451,-99.12515402,,,0,,0,
STOP_134793,,Carpintería,,19.45138787,-99.12253618,,,0,,0,
STOP_134794,,Etzalán,,19.45089217,-99.12029386,,,0,,0,
STOP_134795,,Imprenta,,19.45039646,-99.11801934,,,0,,0,
STOP_134796,,Congreso de la Unión,,19.45000191,-99.11609888,,,0,,0,
STOP_134797,,Bondojito,,19.44936457,-99.11340594,,,0,,0,
STOP_134798,,Ing Eduardo Molina,,19.44881827,-99.11086321,,,0,,0,
STOP_134800,,Marmolería,,19.44826185,-99.10830975,,,0,,0,
STOP_134801,,Floricultura,,19.44788753,-99.10657167,,,0,,0,
STOP_134802,,Cantería,,19.447321,-99.10396457,,,0,,0,
STOP_134803,,Herón Proal,,19.44678481,-99.1016686,,,0,,0,
STOP_134804,,Carlos Marx,,19.44642061,-99.09995198,,,0,,0,
STOP_134805,,Jerusalén,,19.44201974,-99.0959394,,,0,,0,
STOP_134806,,Metro Romero Rubio,,19.44077534,-99.09481287,,,0,,0,
STOP_134807,,Siberia,,19.44409373,-99.0948987,,,0,,0,
STOP_134808,,Avenida Oceanía,,19.44095745,-99.09337521,,,0,,0,
STOP_134809,,Norte 172,,19.43957139,-99.09018874,,,0,,0,
STOP_134810,,Avenida del Peñón,,19.43985468,-99.08996344,,,0,,0,
STOP_134811,,Persia,,19.44094733,-99.08899784,,,0,,0,
STOP_134812,,Persia,,19.44120026,-99.0891695,,,0,,0,
STOP_134813,,Norte 172,,19.44392174,-99.08752799,,,0,,0,
STOP_134814,,Metro Oceanía,,19.44433653,-99.08691645,,,0,,0,
STOP_134815,,Pekín,,19.44510542,-99.09238815,,,0,,0,
STOP_134816,,Manchuria,,19.44439724,-99.09026384,,,0,,0,
STOP_134817,,Manchuria,,19.44393186,-99.09032822,,,0,,0,
STOP_14877,,El Caminero,Estación de Metrobús. Línea 1,19.279392,-99.169174,,,0,,1,
STOP_14878,,La Joya,Estación de Metrobús. Línea 1,19.280359,-99.170097,,,0,,1,
STOP_14879,,Santa Úrsula,Estación de Metrobús. Línea 1,19.283764,-99.175598,,,0,,1,
STOP_14880,,Fuentes Brotantes,Estación de Metrobús. Línea 1,19.28838,-99.174461,,,0,,1,
STOP_14881,,Ayuntamiento,Estación de Metrobús. Línea 1,19.292501,-99.177399,,,0,,1,
STOP_14882,,Corregidora,Estación de Metrobús. Línea 1,19.294146,-99.181252,,,0,,1,
STOP_14883,,Villa Olímpica,Estación de Metrobús. Línea 1,19.299402,-99.185509,,,0,,1,
STOP_14884,,Perisur,Estación de Metrobús. Línea 1,19.304468,-99.186066,,,0,,1,
STOP_14885,,Centro Cultural Universitario,Estación de Metrobús. Línea 1,19.314615,-99.187408,,,0,,1,
STOP_14886,,Ciudad Universitaria,Estación de Metrobús. Línea 1,19.322798,-99.188431,,,0,,1,
STOP_14887,,Dr. Gálvez,Estación de Metrobús. Línea 1,19.340818,-99.18998,,,0,,1,
STOP_14888,,La Bombilla,Estación de Metrobús. Línea 1,19.346811,-99.187912,,,0,,1,
STOP_14889,,Altavista,Estación de Metrobús. Línea 1,19.35128483,-99.1863513,,,0,,1,
STOP_14890,,Olivo,Estación de Metrobús. Línea 1,19.354715,-99.185272,,,0,,1,
STOP_14891,,Francia,Estación de Metrobús. Línea 1,19.35836,-99.184044,,,0,,0,
STOP_14892,,José María Velasco,Estación de Metrobús. Línea 1,19.361984,-99.182716,,,0,,0,
STOP_14893,,Teatro de los Insurgentes,Estación de Metrobús. Línea 1,19.365011,-99.181747,,,0,,1,
STOP_14894,,Río Churubusco,Estación de Metrobús. Línea 1,19.36908,-99.180443,,,0,,1,
STOP_14895,,Félix Cuevas,Estación de Metrobús. Línea 1,19.374292,-99.178757,,,0,,0,
STOP_14896,,Parque Hundido,Estación de Metrobús. Línea 1,19.379322,-99.177284,,,0,,1,
STOP_14897,,Ciudad de los Deportes,Estación de Metrobús. Línea 1,19.382601,-99.176041,,,0,,1,
STOP_14898,,Colonia del Valle,Estación de Metrobús. Línea 1,19.385506,-99.175278,,,0,,1,
STOP_14899,,Nápoles,Estación de Metrobús. Línea 1,19.389858,-99.173683,,,0,,1,
STOP_14900,,Poliforum,Estación de Metrobús. Línea 1,19.393623,-99.172462,,,0,,1,
STOP_14901,,La Piedad,Estación de Metrobús. Línea 1,19.397873,-99.171303,,,0,,1,
STOP_14902,,Nuevo León,Estación de Metrobús. Línea 1,19.401871,-99.16996,,,0,,1,
STOP_14903,,Chilpancingo,Estación de Metrobús. Línea 1,19.406485,-99.168503,,,0,,1,
STOP_14904,,Campeche,Estación de Metrobús. Línea 1,19.409693,-99.16732,,,0,,1,
STOP_14905,,Sonora,Estación de Metrobús. Línea 1,19.413143,-99.166245,,,0,,1,
STOP_14906,,Álvaro Obregón,Estación de Metrobús. Línea 1,19.416866,-99.164856,,,0,,1,
STOP_14907,,Durango,Estación de Metrobús. Línea 1,19.419903,-99.16404,,,0,,1,
STOP_14908,,Insurgentes,Estación de Metrobús. Línea 1,19.4233628,-99.16241527,,,0,,2,
STOP_14909,,Hamburgo,Estación de Metrobús. Línea 1,19.427805,-99.161057,,,0,,1,
STOP_14910,,Reforma,Estación de Metrobús. Línea 1,19.433065,-99.158806,,,0,,1,
STOP_14911,,Revolución,Estación de Metrobús. Línea 1,19.440411,-99.15554,,,0,,1,
STOP_14912,,Plaza de la República,Estación de Metrobús. Línea 1,19.436152,-99.157227,,,0,,1,
STOP_14913,,El Chopo,Estación de Metrobús. Línea 1,19.443102,-99.154594,,,0,,1,
STOP_14914,,Buenavista,Estación de Metrobús. Línea 1,19.446957,-99.15303,,,0,,1,
STOP_14915,,Manuel González,Estación de Metrobús. Línea 1,19.456881,-99.149155,,,0,,1,
STOP_14916,,San Simón,Estación de Metrobús. Línea 1,19.459663,-99.146515,,,0,,2,
STOP_14917,,Circuito,Estación de Metrobús. Línea 1,19.462444,-99.144035,,,0,,2,
STOP_14918,,La Raza,Estación de Metrobús. Línea 1,19.468838,-99.138802,,,0,,2,
STOP_14919,,Potrero,Estación de Metrobús. Línea 1Cuerpo poniente,19.476616,-99.132477,,,0,,2,
STOP_14920,,Euzkaro,Estación de Metrobús. Línea 1Cuerpo poniente,19.482473,-99.127739,,,0,,2,
STOP_14921,,Deportivo 18 de Marzo,Estación de Metrobús. Línea 1Cuerpo oriente,19.486366,-99.124329,,,0,,2,
STOP_14922,,Indios Verdes,Terminal de Metrobús. Línea 1,19.496784,-99.119728,,,0,,1,
STOP_14923,,Insurgentes,Estación de Metrobús. Línea 1,19.424107,-99.163254,,,0,,2,
STOP_14924,,Tacubaya,Terminal Tacubaya. Línea 2,19.40184,-99.186752,,,0,,1,
STOP_14925,,Parque Lira,Estación de Metrobús. Línea 2,19.407742,-99.189377,,,0,,1,
STOP_14926,,Antonio Maceo,Estación de Metrobús. Línea 2,19.404936,-99.18586,,,0,,0,
STOP_14927,,De La Salle,Estación de Metrobús. Línea 2,19.40766,-99.183746,,,0,,1,
STOP_14928,,Patriotismo,Estación de Metrobús. Línea 2,19.405586,-99.177582,,,0,,1,
STOP_14929,,Escandón,Estación de Metrobús. Línea 2,19.4044,-99.173973,,,0,,1,
STOP_14930,,Nuevo León,Estación de Metrobús. Línea 2,19.403549,-99.169624,,,0,,1,
STOP_14931,,Viaducto,Estación de Metrobús. Línea 2,19.401443,-99.168144,,,0,,1,
STOP_14932,,Amores,Estación de Metrobús. Línea 2,19.396929,-99.164116,,,0,,1,
STOP_14933,,Etiopía,Estación de Metrobús. Línea 2,19.395868,-99.155685,,,0,,1,
STOP_14934,,Coyuya,Estación de Metrobús. Línea 2,19.398268,-99.11702,,,0,,1,
STOP_14935,,Álamos,Estación de Metrobús. Línea 2,19.394604,-99.142555,,,0,,1,
STOP_14936,,Xola,Estación de Metrobús. Línea 2,19.394239,-99.139992,,,0,,1,
STOP_14937,,Las Americas,Estación de Metrobús. Línea 2,19.39348,-99.134842,,,0,,1,
STOP_14938,,Andres Molina,Estación de Metrobús. Línea 2,19.397833,-99.129143,,,0,,1,
STOP_14939,,La Viga,Estación de Metrobús. Línea 2,19.398054,-99.1241,,,0,,1,
STOP_14940,,Canela,Estación de Metrobús. Línea 2,19.397827,-99.109451,,,0,,1,
STOP_14941,,Goma,Estación de Metrobús. Línea 2,19.39687,-99.09948,,,0,,1,
STOP_14942,,Iztacalco,Estación de Metrobús. Línea 2,19.396507,-99.096107,,,0,,1,
STOP_14943,,UPIICSA,Estación de Metrobús. Línea 2,19.393915,-99.090385,,,0,,1,
STOP_14944,,El Rodeo,Estación de Metrobús. Línea 2,19.391872,-99.087463,,,0,,1,
STOP_14945,,Río Tecolutla,Estación de Metrobús. Línea 2,19.388918,-99.083008,,,0,,1,
STOP_14946,,Río Mayo,Estación de Metrobús. Línea 2,19.387106,-99.080261,,,0,,1,
STOP_14947,,Rojo Gomez,Estación de Metrobús. Línea 2,19.38422,-99.07608,,,0,,1,
STOP_14948,,Leyes de Reforma,Estación de Metrobús. Línea 2,19.383402,-99.065933,,,0,,1,
STOP_14949,,CCH Oriente,Estación de Metrobús. Línea 2,19.382845,-99.060692,,,0,,1,
STOP_14950,,Constitución de Apatzingan,Estación de Metrobús. Línea 2,19.38921,-99.059868,,,0,,1,
STOP_14951,,General Antonio de León,Estación de Metrobús. Línea 2,19.38493,-99.051758,,,0,,1,
STOP_14952,,Tepalcates,Estación de Metrobús. Línea 2,19.390709,-99.047417,,,0,,1,
STOP_14953,,Canal de San Juan,Estación de Metrobús. Línea 2,19.396456,-99.056015,,,0,,1,
STOP_14954,,Río Frío,Estación de Metrobús. Línea 2,19.387562,-99.074142,,,0,,2,
STOP_14955,,Del Moral,Estación de Metrobús. Línea 2,19.384201,-99.070885,,,0,,1,
STOP_14956,,Nicolás Bravo,Estación de Metrobús. Línea 2,19.393724,-99.051308,,,0,,1,
STOP_14957,,Centro SCOP,Estación de Metrobús. Línea 2,19.395208,-99.146416,,,0,,1,
STOP_14958,,Doctor Vértiz,Estación de Metrobús. Línea 2,19.395544,-99.151352,,,0,,1,
STOP_14959,,Tlacotal,Estación de Metrobús. Línea 2,19.397196,-99.103523,,,0,,1,
STOP_14960,,Etiopía,Estación de Metrobús. Línea 3,19.396456,-99.156013,,,0,,1,
STOP_14961,,Obrero Mundial,Estación de Metrobús. Línea 3,19.40105058,-99.15563464,,,0,,1,
STOP_14962,,Centro Médico,Estación de Metrobús. Línea 3,19.406658,-99.155212,,,0,,1,
STOP_14963,,Dr. Márquez,Estación de Metrobús. Línea 3,19.411371,-99.154854,,,0,,1,
STOP_14964,,Hospital General,Estación de Metrobús. Línea 3,19.414339,-99.154648,,,0,,1,
STOP_14965,,Jardín Pushkin,Estación de Metrobús. Línea 3,19.420378,-99.154167,,,0,,1,
STOP_14966,,Cuauhtémoc,Estación de Metrobús. Línea 3,19.424829,-99.153824,,,0,,1,
STOP_14967,,Balderas,Estación de Metrobús. Línea 3,19.427725,-99.148819,,,0,,1,
STOP_14968,,Juárez,Estación de Metrobús. Línea 3,19.431389,-99.148079,,,0,,1,
STOP_14969,,Hidalgo,Estación de Metrobús. Línea 3,19.43594,-99.147194,,,0,,1,
STOP_14970,,Mina,Estación de Metrobús. Línea 3,19.440229,-99.148651,,,0,,1,
STOP_14971,,Guerrero,Estación de Metrobús. Línea 3,19.445732,-99.147278,,,0,,1,
STOP_14972,,Buenavista,Estación de Metrobús. Línea 3,19.446136,-99.152122,,,0,,0,
STOP_14973,,Ricardo Flores Magón,Estación de Metrobús. Línea 3,19.451923,-99.145882,,,0,,0,
STOP_14974,,Tlatelolco,Estación de Metrobús. Línea 3,19.455849,-99.145042,,,0,,1,
STOP_14975,,Tolnahuac,Estación de Metrobús. Línea 3,19.458822,-99.144379,,,0,,1,
STOP_14976,,Circuito,Estación de Metrobús. Línea 3,19.463369,-99.144173,,,0,,2,
STOP_14977,,Hospital La Raza,Estación de Metrobús. Línea 3,19.467674,-99.143768,,,0,,1,
STOP_14978,,La Raza,Estación de Metrobús. Línea 1,19.467573,-99.140831,,,0,,1,
STOP_14979,,Héroe de Nacozari,Estación de Metrobús. Línea 3,19.47071932,-99.1448307,,,0,,1,
STOP_14980,,Cuitláhuac,Estación de Metrobús. Línea 3,19.473673,-99.145981,,,0,,1,
STOP_14981,,Coltongo,Estación de Metrobús. Línea 3,19.479326,-99.14817,,,0,,2,
STOP_14982,,Magdalena La Salinas,Estación de Metrobús. Línea 3,19.482725,-99.149414,,,0,,1,
STOP_14983,,Poniente 128,Estación de Metrobús. Línea 3,19.489119,-99.151787,,,0,,1,
STOP_14984,,Poniente 134,Estación de Metrobús. Línea 3,19.492285,-99.15303,,,0,,1,
STOP_14985,,Montevideo,Estación de Metrobús. Línea 3,19.49548,-99.154198,,,0,,1,
STOP_14986,,Poniente 146,Estación de Metrobús. Línea 3,19.499525,-99.155724,,,0,,1,
STOP_14987,,La Patera,Estación de Metrobús. Línea 3,19.503313,-99.157166,,,0,,1,
STOP_14988,,Júpiter,Estación de Metrobús. Línea 3,19.508324,-99.159142,,,0,,1,
STOP_14989,,Tres Anegas,Estación de Metrobús. Línea 3,19.51509906,-99.16195393,,,0,,2,
STOP_14990,,Progreso Nacional,Estación de Metrobús. Línea 3,19.51908334,-99.16358471,,,0,,1,
STOP_14991,,San José de la Escalera,Estación de Metrobús. Línea 3,19.52287539,-99.16580558,,,0,,1,
STOP_14992,,Tenayuca,Estación de Metrobús. Línea 3,19.529634,-99.170013,,,0,,1,
STOP_14993,,Buenavista,Estación de Metrobús. Línea 4,19.44486261,-99.15222287,,,0,,0,
STOP_14994,,Delegación Cuauhtémoc,Estación de Metrobús. Línea 4,19.442595,-99.152412,,,0,,0,
STOP_14995,,Puente de Alvarado,Estación de Metrobús. Línea 4. Ruta Sur,19.439026,-99.153267,,,0,,0,
STOP_14996,,Plaza de la República,Estación de Metrobús. Línea 4. Ruta Sur.,19.436804,-99.154137,,,0,,0,
STOP_14997,,Glorieta de Colón,Estación de Metrobús. Línea 4. Ruta Sur.,19.434158,-99.153534,,,0,,0,
STOP_14998,,Expo Reforma,Estación de Metrobús. Línea 4. Ruta Sur.,19.433365,-99.151009,,,0,,1,
STOP_14999,,Vocacional 5,Estación de Metrobús. Línea 4. Ruta Sur.,19.431589,-99.150215,,,0,,1,
STOP_15000,,Juárez,Estación de Metrobús. Línea 4. Ruta Sur.,19.431305,-99.148384,,,0,,1,
STOP_15001,,Plaza San Juan,Estación de Metrobús. Línea 4. Ruta Sur.,19.430607,-99.143547,,,0,,1,
STOP_15002,,Eje Central,Estación de Metrobús. Línea 4. Ruta Sur.,19.430334,-99.14193,,,0,,1,
STOP_15003,,El Salvador,Estación de Metrobús. Línea 4. Ruta Sur.,19.429874,-99.138535,,,0,,1,
STOP_15004,,Isabel La Católica,Estación de Metrobús. Línea 4. Ruta Sur.,19.429617,-99.137009,,,0,,1,
STOP_15005,,Museo de la Ciudad,Estación de Metrobús. Línea 4. Ruta Sur.,19.429287,-99.133675,,,0,,1,
STOP_15006,,Pino Suárez,Estación de Metrobús. Línea 4. Ruta Sur.,19.426737,-99.134079,,,0,,1,
STOP_15007,,Las Cruces Sur,Estación de Metrobús. Línea 4. Ruta Sur.,19.426155,-99.129921,,,0,,1,
STOP_15008,,La Merced,Estación de Metrobús. Línea 4. Ruta Sur.,19.425447,-99.125946,,,0,,1,
STOP_15009,,Circunvalación,Estación de Metrobús. Línea 4. Ruta Sur.,19.428341,-99.125526,,,0,,1,
STOP_15010,,Mercado Sonora,Estación de Metrobús. Línea 4. Ruta Sur.,19.423182,-99.123917,,,0,,0,
STOP_15011,,Eduardo Molina,Estación de Metrobús. Línea 4. Ruta Sur.,19.427177,-99.116226,,,0,,0,
STOP_15012,,Moctezuma,Estación de Metrobús. Línea 4. Ruta Sur.,19.426893,-99.111977,,,0,,1,
STOP_15013,,Hospital Balbuena,Estación de Metrobús. Línea 4. Ruta Sur.,19.425098,-99.11615,,,0,,0,
STOP_15014,,San Lázaro,Estación de Metrobús. Línea 4,19.43091,-99.115173,,,0,,1,
STOP_15015,,San Lázaro,Estación de Metrobús. Línea 4,19.431116,-99.115425,,,0,,1,
STOP_15016,,Museo San Carlos,Estación de Metrobús. Línea 4. Ruta Norte,19.438274,-99.15078,,,0,,0,
STOP_15018,,Teatro Blanquita,Estación de Metrobús. Línea 4. Ruta Norte,19.438637,-99.139977,,,0,,1,
STOP_15019,,República de Chile,Estación de Metrobús. Línea 4. Ruta Norte,19.437965,-99.135895,,,0,,0,
STOP_15020,,República de Argentina,Estación de Metrobús. Línea 4. Ruta Norte,19.437407,-99.131996,,,0,,0,
STOP_15021,,Teatro del Pueblo,Estación de Metrobús. Línea 4. Ruta Norte,19.436769,-99.127625,,,0,,1,
STOP_15022,,Mixcalco,Estación de Metrobús. Línea 4. Ruta Norte,19.436357,-99.123413,,,0,,1,
STOP_15023,,Ferrocarríl de Cintura,Estación de Metrobús. Línea 4. Ruta Norte,19.436001,-99.121613,,,0,,1,
STOP_15024,,Morelos,Estación de Metrobús. Línea 4. Ruta Norte,19.435814,-99.119003,,,0,,0,
STOP_15025,,Archivo General de la Nación,Estación de Metrobús. Línea 4. Ruta Norte,19.43541316,-99.11509037,,,0,,1,
STOP_15027,,Terminal 1,Estación de Metrobús. Línea 4,19.435307,-99.083664,,,0,,1,
STOP_15028,,Terminal 2,Estación de Metrobús. Línea 4,19.421476,-99.077248,,,0,,1,
STOP_15029,,Delegación Cuauhtémoc,Estación de Metrobús. Línea 4. Ruta Sur,19.442137,-99.152451,,,0,,0,
STOP_15030,,Puente de Alvarado,Estación de Metrobús. Línea 4. Ruta Sur,19.438641,-99.153458,,,0,,0,
STOP_15031,,Plaza de la República,Estación de Metrobús. Línea 4. Ruta Sur,19.437128,-99.153984,,,0,,0,
STOP_15032,,Glorieta de Colón,Estación de Metrobús. Línea 4. Ruta Sur.,19.435015,-99.153374,,,0,,0,
STOP_15033,,Expo Reforma,Estación de Metrobús. Línea 4. Ruta Sur.,19.433105,-99.150627,,,0,,1,
STOP_15034,,Vocacional 5,Estación de Metrobús. Línea 4. Ruta Sur.,19.431755,-99.150955,,,0,,1,
STOP_15035,,Juárez,Estación de Metrobús. Línea 4. Ruta Sur.,19.431259,-99.147743,,,0,,1,
STOP_15036,,Plaza San Juan,Estación de Metrobús. Línea 4. Ruta Sur.,19.430773,-99.144653,,,0,,1,
STOP_15037,,Eje Central,Estación de Metrobús. Línea 4. Ruta Sur.,19.430304,-99.1408,,,0,,1,
STOP_15038,,El Salvador,Estación de Metrobús. Línea 4. Ruta Sur.,19.430071,-99.13942,,,0,,1,
STOP_15039,,Isabel La Católica,Estación de Metrobús. Línea 4. Ruta Sur.,19.429691,-99.136589,,,0,,1,
STOP_15040,,Museo de la Ciudad,Estación de Metrobús. Línea 4. Ruta Sur.,19.429195,-99.134033,,,0,,1,
STOP_15041,,Las Cruces Norte,Estación de Metrobús. Línea 4. Ruta Sur.,19.428699,-99.129272,,,0,,1,
STOP_15042,,Mercado Sonora,Estación de Metrobús. Línea 4. Ruta Sur.,19.423241,-99.123413,,,0,,0,
STOP_15043,,Cecilio Robelo,Estación de Metrobús. Línea 4. Ruta Sur.,19.425175,-99.119873,,,0,,0,
STOP_15044,,Cecilio Robelo,Estación de Metrobús. Línea 4. Ruta Sur.,19.425484,-99.119041,,,0,,0,
STOP_15045,,Archivo General de la Nación,Estación de Metrobús. Línea 4. Ruta Norte,19.434969,-99.114616,,,0,,1,
STOP_15046,,Morelos,Estación de Metrobús. Línea 4. Ruta Norte,19.435787,-99.118248,,,0,,0,
STOP_15047,,Ferrocarríl de Cintura,Estación de Metrobús. Línea 4. Ruta Norte,19.436142,-99.120811,,,0,,0,
STOP_15048,,Mixcalco,Estación de Metrobús. Línea 4. Ruta Norte,19.436323,-99.124153,,,0,,1,
STOP_15049,,Teatro del Pueblo,Estación de Metrobús. Línea 4. Ruta Norte,19.43685,-99.127045,,,0,,1,
STOP_15050,,República de Argentina,Estación de Metrobús. Línea 4. Ruta Norte,19.437357,-99.131195,,,0,,1,
STOP_15051,,Teatro Blanquita,Estación de Metrobús. Línea 4. Ruta Norte,19.438429,-99.139084,,,0,,1,
STOP_15052,,Bellas Artes,Estación de Metrobús. Línea 4. Ruta Norte,19.436407,-99.141823,,,0,,1,
STOP_15053,,Hidalgo,Estación de Metrobús. Línea 4. Ruta Norte,19.437281,-99.14621,,,0,,1,
STOP_15054,,Museo San Carlos,Estación de Metrobús. Línea 4. Ruta Norte,19.438227,-99.150604,,,0,,0,
STOP_15055,,República de Chile,Estación de Metrobús. Línea 4. Ruta Norte,19.437883,-99.135025,,,0,,1,
STOP_15175,,CETRAM Metro San Lázaro - Paradero Lado Norte,Saliendo del Metro Linea - B,19.43136612,-99.11458611,,,0,,0,
STOP_37615,,Buenavista,,19.44545951,-99.1522336,,,0,,1,
STOP_15176,,Avenida Ingeniero Eduardo Molina - Calzada Ignacio Zaragoza,Pasando la Estacion del Metrobus Eduardo Molina,19.42923127,-99.11524057,,,0,,0,
STOP_15444,,Eje 3 Oriente Francisco Del Paso Y Troncoso - Metro Mixihuca,Saliendo del Metro antes de cruzar la Av. Morelos,19.4088425,-99.11343813,,,0,,0,
STOP_15451,,Eje 3 Oriente Francisco Del Paso Y Troncoso - 16 De Septiembre,Parabus 200 metros antes del Dormimundo,19.40348939,-99.11396384,,,0,,0,
STOP_39366,,Río de los Remedios,Descripción ,19.50701068,-99.08619761,,,0,,1,
STOP_39371,,314-Memorial New's Divine,Descripción ,19.50147503,-99.08852577,,,0,,1,
STOP_39992,,314-Memorial New's Divine,ESTACIÓN EN DOS CUERPOS,19.50152751,-99.08798933,,,0,,1,
STOP_39993,,5 de Mayo,ESTACIÓN EN DOBLE CUERPO,19.49758326,-99.09024239,,,0,,1,
STOP_39994,,5 de Mayo,ESTACIÓN DOBLE CUERPO,19.49745178,-99.0898025,,,0,,1,
STOP_39995,,Vasco de Quiroga,ESTACIÓN DOBLE CUERPO PTE,19.49369959,-99.0918088,,,0,,1,
STOP_39996,,Vasco de Quiroga,ESTACIÓN DOBLE CUERPO OTE,19.49361868,-99.09143329,,,0,,1,
STOP_39997,,El Coyol,ESTACIÓN EN DOBLE CUERPO PTE,19.48717603,-99.09455538,,,0,,1,
STOP_39998,,El Coyol,ESTACIÓN EN DOBLE CUERPO OTE,19.48703443,-99.09424424,,,0,,1,
STOP_39999,,Preparatoria 3,ESTACION EN DOBLE CUERPO PTE,19.48415185,-99.09588575,,,0,,1,
STOP_40000,,Preparatoria 3,ESTACIÓN EN DOBLE CUERPO OTE,19.48403047,-99.0955317,,,0,,1,
STOP_40001,,Río de Guadalupe,ESTACIÓN EN DOBLE CUERPO PTE,19.47564538,-99.09945846,,,0,,2,
STOP_40002,,Río de Guadalupe,ESTACION ENDOBLE CUERPO OTE,19.47561504,-99.09911513,,,0,,1,
STOP_40003,,Talismán,ESTACION EN DOBLE CUERPO PTE,19.47065863,-99.10153985,,,0,,1,
STOP_40004,,Talismán,ESTACIÓN EN DOBLE CUERPO OTE,19.47053724,-99.10130382,,,0,,1,
STOP_40005,,San Juan de Aragón,ESTACIÓN EN DOBLE CUERPO PTE,19.47935753,-99.09794569,,,0,,1,
STOP_40006,,San Juan de Aragón,ESTACIÓN EN DOBLE CUERPO OTE,19.47927661,-99.09749508,,,0,,1,
STOP_40007,,Victoria,ESTACIÓN EN DOBLE CUERPO PTE,19.46703732,-99.10305262,,,0,,1,
STOP_40008,,Victoria,ESTACIÓN EN DOBLE CUERPO OTE,19.46697662,-99.10277367,,,0,,1,
STOP_40009,,Oriente 101,ESTACIÓN EN DOBLE CUERPO PTE,19.46117022,-99.10552025,,,0,,1,
STOP_40010,,Oriente 101,ESTACIÓN EN DOBLE CUERPO OTE,19.46114998,-99.10530567,,,0,,1,
STOP_40011,,Río Santa Coleta,ESTACIÓN EN DOBLE CUERPO,19.45634487,-99.10741925,,,0,,1,
STOP_40012,,Río Santa Coleta,ESTACIÓN EN DOBLE CUERPO OTE,19.45630441,-99.10727978,,,0,,1,
STOP_40013,,Río Consulado,ESTACIÓN EN DOBLE CUERPO PTE,19.45314813,-99.10869598,,,0,,1,
STOP_40014,,Río Consulado,ESTACIÓN DOBLE CUERPO OTE,19.45313802,-99.10848141,,,0,,1,
STOP_40015,,Canal del Norte,ESTACIÓN UN CUERPO DOBLE ACCESO,19.44963771,-99.1104126,,,0,,1,
STOP_40018,,Deportivo Eduardo Molina,"ESTACIÓN SENCILLA, UN ACCESO",19.44520659,-99.11195755,,,0,,1,
STOP_40019,,MERCADO MORELOS,"ESTACION SENCILLA, UN ACCESO",19.44070452,-99.11364198,,,0,,1,
STOP_40020,,ARCHIVO GRAL. DE LA NACIÓN,"ESTACIÓN SENCILLA, UN ACCESO",19.43763899,-99.11431789,,,0,,1,
STOP_40021,,San Lázaro,TERMINAL EN DOS CUERPOS,19.43090071,-99.1153264,,,0,,1,
STOP_40022,,San Lázaro,TERMINAL EN DOS CUERPOS DESCENSO,19.43069835,-99.11533713,,,0,,1,
STOP_41512,,Indios Verdes,Av. Ticomán,19.49343663,-99.1201973,,,0,,0,
STOP_41513,,Deportivo 18 de Marzo,Parabús Montevideo,19.48753003,-99.12451029,,,0,,0,
STOP_41514,,Euskaro,Parabús Fortuna,19.48220986,-99.12880182,,,0,,0,
STOP_41516,,Potrero,Lateral Insurgentes - Ponient 116,19.4771525,-99.13302898,,,0,,0,
STOP_15501,,Avenida 5 - Escuadrón 201,A 200 metros antes de las Escalinatas de la Estación del Metro 201 ,19.36433247,-99.10940409,,,0,,0,
STOP_41518,,Manuel González,Parabus Manuel Gonzalez,19.45732614,-99.14887547,,,0,,0,
STOP_41519,,Buenavista,Parabús Mosqueta,19.44644084,-99.15338159,,,0,,0,
STOP_41520,,Sor Juana,Parabús Sorjuana,19.44454899,-99.15408969,,,0,,0,
STOP_41521,,Amado Nervo,Parabús Amado Nervo,19.4427684,-99.15473342,,,0,,0,
STOP_41522,,Revolución,Parabús San Cosme,19.44024925,-99.1556561,,,0,,0,
STOP_41523,,Plaza de la República,Parabús Gómez Farias,19.43671831,-99.15717959,,,0,,0,
STOP_41524,,Reforma,Parabús Sullivan,19.43259036,-99.15898204,,,0,,0,
STOP_41525,,Hamburgo,Parabús Nápoles,19.42866467,-99.16083813,,,0,,0,
STOP_41526,,Glorieta Insurgentes,Glorieta,19.42416214,-99.16345596,,,0,,0,
STOP_41527,,Sinaloa,Parabús Sinaloa,19.42171352,-99.16365981,,,0,,0,
STOP_41528,,Monterrey,Parabús Monterrey,19.41937617,-99.16438937,,,0,,0,
STOP_41529,,Álvaro Obregón,Parabús Alvaro Obregón,19.41749412,-99.16489363,,,0,,0,
STOP_41530,,Sonora,Parabús Sonora,19.41286986,-99.16638494,,,0,,0,
STOP_41531,,MIchoacán,Parabús Michoacán,19.41065381,-99.16708231,,,0,,0,
STOP_41532,,Campeche,Parabús Campeche,19.40944964,-99.16751146,,,0,,0,
STOP_41533,,Chilpancingo,Parabús Baja California,19.40632281,-99.16851997,,,0,,0,
STOP_41534,,Nuevo León,Parabús Tehuantepec,19.40378285,-99.16935682,,,0,,0,
STOP_41535,,La Piedad,Parabús Ohio,19.39847006,-99.17107344,,,0,,0,
STOP_41536,,Poliforum,Parabús Filadelfia,19.3928636,-99.17289734,,,0,,0,
STOP_41537,,Nápoles,Parabús Georgia,19.39037404,-99.17372346,,,0,,0,
STOP_41538,,Colonia del Valle ,Parabús Nueva York,19.38662949,-99.17493582,,,0,,0,
STOP_41539,,Ciudad de los Deportes,Parabús Holbein,19.38362367,-99.17590141,,,0,,0,
STOP_41540,,Porfirio Díaz,Parque Hundido I,19.3804255,-99.17701721,,,0,,0,
STOP_41541,,Parque Hundido,Parabús Parque Hundido,19.37826973,-99.17774677,,,0,,0,
STOP_41542,,Millet,Parabús Millet,19.37668072,-99.17821884,,,0,,0,
STOP_41543,,Felix Cuevas,Parabús Extrenadura,19.37439333,-99.17892694,,,0,,0,
STOP_41544,,Algeciras,Parabús Algeciras,19.37176178,-99.17981744,,,0,,0,
STOP_41545,,Río Churubusco,Parabús Río Mixcoac,19.36841155,-99.18085814,,,0,,0,
STOP_41546,,Teatro Insurgentes,Parabús Perpetua,19.36596209,-99.18163061,,,0,,0,
STOP_41547,,José María Velasco,Parabús José María Velasco,19.36274333,-99.18264985,,,0,,0,
STOP_41548,,Francia I,Parabús Juan Pablo II,19.35907912,-99.18393731,,,0,,0,
STOP_41549,,Francia II,Parabús Juventino Rosas,19.35605255,-99.18487072,,,0,,0,
STOP_41551,,Olivo,Parabús Jaime Nunó,19.3532385,-99.1857934,,,0,,0,
STOP_41552,,Altavista,Parabús Pedro L. Ogazón,19.35048513,-99.18673754,,,0,,0,
STOP_41553,,La Bombilla I,Parabús la Paz,19.34760012,-99.18767095,,,0,,0,
STOP_41554,,La Bombilla II,Parabús Rey Cuahutémoc,19.34264993,-99.18948412,,,0,,0,
STOP_41555,,Dr. Galvez,Parabús Ignacio M. Altamirano,19.33975465,-99.19057846,,,0,,0,
STOP_41562,,Dr. Gálvez,Parabús Altamirano,19.33981539,-99.19013858,,,0,,0,
STOP_41563,,Dr. Gálvez,Parabús Reu Cuahutémoc,19.34278153,-99.18906569,,,0,,0,
STOP_41564,,La Bombilla,Parabús La Paz,19.34710409,-99.18740273,,,0,,0,
STOP_41565,,Altavista,Parabús Vito A. Robles,19.34985752,-99.18649077,,,0,,0,
STOP_41566,,Olivo,Parabús Juventino Rosas,19.35579949,-99.1846025,,,0,,0,
STOP_41567,,Francia,Parabús Francia,19.35855277,-99.18373346,,,0,,0,
STOP_41569,,José Ma. Velasco,José María Velasco,19.36194369,-99.18264985,,,0,,0,
STOP_41572,,Teatro Insurgentes,Parabús Hermes,19.36411991,-99.18189883,,,0,,0,
STOP_41573,,Río Churubusco,Parabús Río Chrurubusco,19.36735889,-99.18083668,,,0,,0,
STOP_41575,,Félix Cuevas,Parabús Félix Cuevas,19.37259173,-99.17916298,,,0,,0,
STOP_41576,,parque Hundido I,Parabús Millet,19.37643781,-99.17790771,,,0,,0,
STOP_41578,,Parque Hundido II,Parabús Porfirio Díaz,19.38009151,-99.17666316,,,0,,0,
STOP_41580,,Ciudad de los Deportes,Parabús Eje 6 Sur,19.38302655,-99.17572975,,,0,,0,
STOP_41585,,Colonia del Valle,Parabús Santa Margarita,19.38542514,-99.17494655,,,0,,0,
STOP_41589,,Nápoles,Parabús Pasadena,19.3900097,-99.17344451,,,0,,0,
STOP_41590,,Polifoprum,Parabús Torres Adalid,19.39252964,-99.17263985,,,0,,0,
STOP_41592,,La Piedad,Parabús División del Norte,19.39969455,-99.17036533,,,0,,0,
STOP_41594,,Puente de San Jerónimo,"Terminal San Angel,Av Revolución Y Puente De San Jerónimo",19.33686945,-99.19322848,,,0,,0,
STOP_41595,,Nuevo León,Parabús Chilpancingo,19.40317569,-99.16909933,,,0,,0,
STOP_41596,,Chilpancingo,Parabús baja California,19.40567518,-99.1683805,,,0,,0,
STOP_41598,,Campeche,Parabús Coahuila,19.41030977,-99.16681409,,,0,,0,
STOP_41599,,Sonora,Parabús San Luis Potosí,19.41261689,-99.16606307,,,0,,0,
STOP_41601,,Alvaro Obregón,Parabús Alvaro Obregón,19.41701855,-99.16465759,,,0,,0,
STOP_41602,,Monterrey,Parabús Monterrey,19.41789887,-99.16441083,,,0,,0,
STOP_41604,,Durango,Parabús Puebla,19.42200695,-99.16317701,,,0,,0,
STOP_41605,,Insurgentes,Liverpool,19.42499183,-99.16214705,,,0,,0,
STOP_41606,,Hamburgo,Parabús Amburgo,19.427835,-99.16091323,,,0,,0,
STOP_41607,,Reforma I,Parabús Reforma,19.4296461,-99.16005492,,,0,,0,
STOP_41608,,Reforma II,Parabús Sullivan,19.43201366,-99.15884256,,,0,,0,
STOP_41609,,Plaza de la República i,Parabús Antonio Caso,19.43385507,-99.15799499,,,0,,0,
STOP_41613,,Plaza de la República II,Parabús Tomas Alva Edison,19.43794251,-99.15635347,,,0,,0,
STOP_41614,,Eje 10 Sur,"Sentido Norte,Av Revolución Y Eje 10 Sur",19.33850947,-99.19204831,,,0,,0,
STOP_41615,,Revolución I,Parabús Puente de Alvarado,19.43923753,-99.15563464,,,0,,0,
STOP_41617,,Altamirano,"Sentido Norte,Av Revolución Y Calle Altamirano",19.33969391,-99.19162989,,,0,,0,
STOP_41618,,Rey Cuahutémoc,"Sentido Norte,Av Revolución Y Calle Rey Cuauhtemoc",19.34216401,-99.19067502,,,0,,0,
STOP_41620,,Revolución II,Parabús H. Ferrocarrileros,19.44121038,-99.15478706,,,0,,0,
STOP_41621,,Dr. Galvez,"Sentido Norte, Av Revolución Y Calle Dr, Gálvez",19.34352052,-99.19034243,,,0,,0,
STOP_41622,,El Chopo,Parabús Luis Donaldo Colosio,19.44249524,-99.1543901,,,0,,0,
STOP_41623,,Buenavista,Parabús Mosqueta,19.4458743,-99.15310264,,,0,,0,
STOP_41624,,Altavista las Flores,"Sentido Norte ,Av Revolución Y Mercado De Las Flores",19.34689151,-99.19009566,,,0,,0,
STOP_41625,,Manuel González,Parabús Manuel González,19.45670906,-99.14895058,,,0,,0,
STOP_41626,,Altavista,"Sentido Norte ,Av Revolución Y Av. Altavista",19.34792405,-99.19029951,,,0,,0,
STOP_41627,,Maria Luisa,"Sentido Norte ,Av Revolución Y Calle María Luisa",19.35113298,-99.19031024,,,0,,0,
STOP_41629,,San Simón,Parabús San Simón,19.45901552,-99.14655805,,,0,,0,
STOP_41630,,Fernando Villalpando,"Sentido Norte, Av Revolución Y Calle Fernando Villalpando",19.35314739,-99.19008493,,,0,,0,
STOP_41631,,Ricardo Castro,"Sentido Norte ,Av Revolución Y Calle Ricardo Castro",19.35561729,-99.18974161,,,0,,0,
STOP_41633,,Sofia,"Sentido Norte ,Av Revolución Y Sofía",19.35710528,-99.18963432,,,0,,0,
STOP_41634,,Felipe Villanueva /J.P. II,"Sentido Norte ,Av Revolución Y Calle Juan Pablo Ii",19.36005085,-99.18932319,,,0,,0,
STOP_41635,,Circuito,Parabús Monumento a la Raza,19.46305176,-99.14316773,,,0,,0,
STOP_15507,,Avenida 5 - Anastasio Sarabia,100 metros antes de las escalinatas del Puente Peatonal,19.36069867,-99.11057353,,,0,,0,
STOP_41638,,José María Velasco,"Sentido Norte ,Av Revolución Y Calle José María Velazco",19.3643932,-99.1888082,,,0,,0,
STOP_15509,,Avenida 5 - Eje 8 Sur Calzada Ermita - Iztapalapa,200 metros antes de la esquina con la Calzada de Ermita Iztapalapa,19.35690283,-99.11135674,,,0,,0,
STOP_41641,,Potrero,Parabús Excelsior,19.47498791,-99.13272858,,,0,,0,
STOP_41642,,Diego Becerra,"Sentido Norte ,Av Revolución Y Calle Diego Becerra",19.36644794,-99.18856144,,,0,,0,
STOP_41643,,Euskaro,Parabús Euskaro,19.48079382,-99.1279006,,,0,,0,
STOP_41644,,Andrés de la Concha,"Sentido Norte ,Av Revolución Y Calle Andrés De La Concha",19.36854313,-99.18837905,,,0,,0,
STOP_41645,,José del Castillo,"Sentido Norte, Av Revolución Y Calle Andrés De La Concha",19.37158971,-99.18803573,,,0,,0,
STOP_41646,,Deportivo 18 de Marzo,Parabús Montevideo,19.48660963,-99.12312627,,,0,,0,
STOP_41647,,Goya,"Sentido Norte , Av Revolución Y Calle Andrés De La Concha",19.37378605,-99.18716669,,,0,,0,
STOP_15553,,Carlota Armero - Plaza Teotihuacán,Parabus a 500 metros antes de la Avenida Santa Ana,19.32921583,-99.11380291,,,0,,0,
STOP_41650,,Rubens,"Sentido Norte , Av Patriotismo Y Calle De Rubens",19.37823937,-99.18584704,,,0,,0,
STOP_41651,,Holbein,"Sentido Norte, Av Patriotismo Y  Calle Holbein",19.38072912,-99.18490291,,,0,,0,
STOP_41652,,Tintoreto," Sentido Norte, Av Patriotismo Y Calle Tintoreto",19.38361355,-99.18373346,,,0,,0,
STOP_41653,,San Antonio,"Sentido Norte, Av Patriotismo Y Av. San Antonio",19.38487863,-99.18318629,,,0,,0,
STOP_41654,,Calle 21,"Sentido Norte , Av Patriotismo Y  Calle 21",19.38724684,-99.18256402,,,0,,0,
STOP_41655,,Calle 17," Sentido Norte, Av Patriotismo y Calle 17",19.38856249,-99.18245673,,,0,,0,
STOP_41656,,Calle 9,"Sentido Norte , Av Patriotismo Y Calle 9",19.39102173,-99.18216705,,,0,,0,
STOP_41657,,Puente de la Morena,"Sentido Norte, Av Patriotismo Y Av. Puente De La Morena",19.39527218,-99.18140531,,,0,,0,
STOP_41658,,Ticoman,Parabús Cantera,19.49092838,-99.11975741,,,0,,0,
STOP_41659,,11 de Abril,"Sentido Norte, Av Patriotismo  Y Calle 11 De Abril",19.39693184,-99.18099761,,,0,,0,
STOP_41660,,13 de Septiembre,"Sentido Norte, Av Patriotismo  Y Calle 13 De Septiembre",19.39895581,-99.18036461,,,0,,0,
STOP_41661,,Martires de la Conquista,"Sentido Norte, Av Patriotismo Y calle  Martires de la Conquista",19.40061544,-99.17977452,,,0,,0,
STOP_41662,,José Martí,"Sentido Norte, Av Patriotismo Y Calle José Martí",19.40252804,-99.17906642,,,0,,0,
STOP_41663,,Progreso,"Sentido Norte, Av Patriotismo Y Calle De Progreso",19.40425847,-99.1784656,,,0,,0,
STOP_41665,,Benjamin Franklin,"Sentido Norte, Av Patriotismo y  Av. Benjamín Franklin",19.40547279,-99.17803645,,,0,,0,
STOP_41666,,Tamaulipas,"Sentido Norte, Diagonal Patriotismo Y Av. Tamaulipas",19.40680854,-99.17852998,,,0,,0,
STOP_41667,,Mazatlan,"Sentido Norte, Diagonal Patriotismo Y  Av. Mazatlán",19.40893357,-99.17982817,,,0,,0,
STOP_41668,,Alfonso Reyes,"Sentido Norte, Diagonal Patriotismo Y  Av. Mazatlán",19.41044131,-99.18075085,,,0,,0,
STOP_15812,,Prolongación División Del Norte - Guadalupe I. Ramírez,100 metros después del Banco BBVA ,19.26655604,-99.11589503,,,0,,0,
STOP_41670,,Juan Escutia,"Sentido Norte, Lateral De Circuito Interior  Y Calle Juan Escutia",19.41663404,-99.17892694,,,0,,0,
STOP_41671,,Agustin Melgar,"Sentido Norte, Lateral De Circuito  Interior Y Calle Agustín Melgar",19.41902203,-99.17759657,,,0,,0,
STOP_41672,,Metro Chapultepec,Terminal Chapultepec.,19.42073204,-99.17556882,,,0,,0,
STOP_15975,,Prolongación División Del Norte - Guadalupe I. Ramírez,Bajo Puente a 200 metros del Sanbors ,19.26565465,-99.11507964,,,0,,0,
STOP_16044,,Armada De México - Rancho Estopila,200 metros antes del Banco Banamex,19.30389355,-99.11234379,,,0,,0,
STOP_41675,,Benjamin Franklin,"Sentido Sur, Av Revolución Y Av. Benjamín Franklin",19.40803297,-99.18425918,,,0,,0,
STOP_41676,,Progreso,"Sentido Sur, Av Revolución Y Calle Progreso",19.40641389,-99.1844523,,,0,,0,
STOP_41677,,José Martí,"Sentido Sur, Av Revolución Y Calle José Martí",19.4033376,-99.18470979,,,0,,0,
STOP_41678,,José María Vigil,"Sentido Sur, Av Revolución Y Calle José María Vigil",19.40146548,-99.18481708,,,0,,0,
STOP_41679,,Heroes de 1810,"Sentido Sur, Av Revolución Y Calle De Héroes De 1810",19.39904688,-99.18502092,,,0,,0,
STOP_41680,,11 de Abril,"Sentido Sur, Av Revolución Y Calle De Héroes De 1810",19.39601093,-99.18539643,,,0,,0,
STOP_41681,,Calle 2,"Sentido Sur, Av Revolución Y Calle De Héroes De 1810",19.39241832,-99.1857934,,,0,,0,
STOP_41682,,Metro San Pedro de los Pinos,"Sentido Sur, Av Revolución Y Calle De Héroes De 1810",19.39119378,-99.18595433,,,0,,0,
STOP_41683,,Calle 10,"Sentido Sur, Av Revolución Y Calle 10",19.38908875,-99.18615818,,,0,,0,
STOP_41684,,Calle 22,"Sentido Sur, Av Revolución Y Calle 22",19.38585021,-99.18654442,,,0,,0,
STOP_41685,,Metro San Antonio,"Sentido Sur, Av Revolución Y Calle 22",19.38487863,-99.18669462,,,0,,0,
STOP_41686,,Rembrandt,"Sentido Sur, Av Revolución Y Calle 22",19.38118456,-99.18708086,,,0,,0,
STOP_41687,,Murillo,"Sentido Sur, Av Revolución Y Calle De Murillo",19.37901869,-99.18731689,,,0,,0,
STOP_16056,,Armada De México - Hacienda Santo Tómas,100 metros antes de la esquina,19.30847028,-99.1111207,,,0,,0,
STOP_16059,,Armada De México - Calzada De Las Bombas,Parabus a 200 metros antes de la esquina con Calzada de las Bombas,19.31036371,-99.11072373,,,0,,0,
STOP_41690,,Los Echave,"Sentido Sur, Av Revolución Y Calle Los Echave",19.37194396,-99.18831468,,,0,,0,
STOP_41691,,Castañeda,"Sentido Sur, Av Revolución Y Calle Castañeda",19.37094194,-99.18845415,,,0,,0,
STOP_41692,,Miguel Cabrera,"Sentido Sur, Av Revolución Y Calle Miguel Cabrera",19.36931237,-99.18863654,,,0,,0,
STOP_41693,,Merced Gómez,"Sentido Sur, Av Revolución Y Calle Miguel Cabrera",19.36635684,-99.18892622,,,0,,0,
STOP_41694,,Juan Tinoco,"Sentido Sur, Av Revolución Y Calle De Juan Tinoco",19.3646665,-99.18910861,,,0,,0,
STOP_16073,,Carlota Armero - Calzada De La Virgen,Parabus 100 metro antes de la esquina ,19.32091388,-99.11401749,,,0,,0,
STOP_41696,,Sofía,"Sentido Sur, Av Revolución Y Calle De Sofía",19.35756078,-99.1898489,,,0,,0,
STOP_41697,,Roberto Böcker,"Sentido Sur, Av Revolución Y Calle Bocker",19.3560728,-99.19006348,,,0,,0,
STOP_41698,,Tlacopac,"Sentido Sur, Av Revolución Y Calle Tlacopac",19.35402806,-99.19029951,,,0,,0,
STOP_41699,,María Luisa,"Sentido Sur, Av Revolución Y Calle María Luisa",19.35126458,-99.19061065,,,0,,0,
STOP_41700,,Altavista,"Sentido Sur, Av Revolución Y Av. Altavista",19.34862253,-99.19070721,,,0,,0,
STOP_41701,,Altavista las Flores,"Sentido Sur, Av Revolución Y Altavista Frente Al Mercado De Las Flores",19.3468409,-99.19032097,,,0,,0,
STOP_41702,,Dr. Galvez,"Sentido Sur, Av Revolución Y Calle Dr. Gálvez",19.34385459,-99.19049263,,,0,,0,
STOP_41703,,Rey Cuauhtémoc,"Sentido Sur, Av Revolución Y Calle Rey Cuauhtémoc",19.34226524,-99.19090033,,,0,,0,
STOP_41704,,Altamirano,"Sentido Sur, Av Revolución Y Calle De Altamirano",19.34000774,-99.1917479,,,0,,0,
STOP_41705,,Eje 10 Sur,"Sentido Sur, Av Revolución Y Eje 10 Sur",19.33874231,-99.19226289,,,0,,0,
STOP_132396,,"Cierre de Circuito,Circuito Interior - Avenida Oceania",,19.44559103,-99.08724904,,,0,,0,
STOP_132397,,"Cierre de Circuito,Circuito Interior - Avenida Oceanía ",,19.44533811,-99.08677697,,,0,,0,
STOP_133884,,Metro Tláhuac,,19.28636512,-99.01463628,,,0,,0,
STOP_133885,,Zapotitlán,,19.29661305,-99.03432369,,,0,,0,
STOP_133887,,Nopalera,,19.29994451,-99.0462327,,,0,,0,
STOP_133888,,Olivos,,19.30427833,-99.05955791,,,0,,0,
STOP_133889,,Tezonco,,19.30628319,-99.06529784,,,0,,0,
STOP_133890,,Periferico oriente,,19.3174816,-99.07441735,,,0,,0,
STOP_133891,,Calle 11,,19.32048864,-99.08583283,,,0,,0,
STOP_133892,,Lomas Estrella,,19.32214907,-99.09572482,,,0,,0,
STOP_133893,,San Andrés Tomatlán,,19.3281123,-99.10440445,,,0,,0,
STOP_133894,,Culhuacán,,19.33694032,-99.10895348,,,0,,0,
STOP_133895,,Atlalilco,,19.35259065,-99.10614252,,,0,,0,
STOP_133896,,Atlalilco,,19.35266151,-99.10631418,,,0,,0,
STOP_133988,,Avenida Santa Fe - Juan O'Gorman,,19.35974719,-99.26952124,,,0,,0,
STOP_133990,,Avenida Chapultepec - Las Flores,,19.41678582,-99.17954922,,,0,,0,
STOP_133992,,Avenida Chapultepec - Metro Sevilla,,19.42168317,-99.17071939,,,0,,0,
STOP_133993,,Avenida Chapultepec - Metro Chapultepec,,19.42091417,-99.17423844,,,0,,0,
STOP_16373,,Eje 3 Oriente Francisco Del Paso Y Troncoso - Santa María Purísima,A 100 metros de las Escalinatas de la Estación del Metro Apatlaco Linea-8,19.37931219,-99.10982251,,,0,,0,
STOP_17785,,TERMINAL TEOLOYUCAN (San Felipe de Jesús),San Felipe Metro Hidalgo,19.49606038,-99.06508346,,,0,,0,
STOP_15198,,Terminal Cetram Metro Santa Martha,,19.36024318,-98.99542093,,,0,,0,
STOP_15205,,Xocoyote - Xanticas,,19.43114353,-99.06212211,,,0,,0,
STOP_15208,,Calzada Ermita Iztapalapa - San Miguel,,19.34727618,-99.01930332,,,0,,0,
STOP_15210,,Calzada Ermita Iztapalapa - Quebradora,,19.34562613,-99.02066588,,,0,,0,
STOP_15211,,Calzada Ermita Iztapalapa - Jalisco,,19.34482641,-99.025172,,,0,,0,
STOP_15213,,Eje 5 Norte Avenida San Juan de Aragón - Ferrocarril Hidalgo,,19.48242227,-99.10607815,,,0,,0,
STOP_15214,,Eje 5 Norte Avenida San Juan de Aragón - Avenida 5 de Febrero,,19.48441482,-99.11360979,,,0,,0,
STOP_15215,,5 de Febrero - Mariano Abasolo,,19.48699398,-99.1128695,,,0,,0,
STOP_15216,,Cantera - Hidalgo,,19.48771209,-99.11359906,,,0,,0,
STOP_15217,,Prolongación Misterios - Albarradón,,19.48983606,-99.11799788,,,0,,0,
STOP_15218,,Prolongación Misterios - Insurgentes,,19.49141385,-99.1197145,,,0,,0,
STOP_15219,,Ticoman - Coquimbo,,19.49472109,-99.12205338,,,0,,0,
STOP_15221,,Ticoman - Cienfuegos,,19.49886768,-99.12449956,,,0,,0,
STOP_15224,,Juan De Dios Bátiz - Avenida Instituto Politécnico Nacional,,19.50289281,-99.13135529,,,0,,0,
STOP_15226,,Avenida Miguel Bernard -Juan de Dios Bátiz ,,19.50342881,-99.13339376,,,0,,0,
STOP_15227,,Calzada Ermita Iztapalapa - Tinacos,,19.34412791,-99.03256416,,,0,,0,
STOP_15228,,Calzada Ermita Iztapalapa - Calle 17,,19.34374323,-99.03580427,,,0,,0,
STOP_15229,,Calzada Ermita Iztapalapa - Calle 39,,19.34331806,-99.04044986,,,0,,0,
STOP_15230,,Calzada Ermita Iztapalapa - Calle 55,,19.34300424,-99.04384017,,,0,,0,
STOP_15231,,Calzada Ermita Iztapalapa - Calle 71,,19.34271067,-99.04747725,,,0,,0,
STOP_15232,,Avenida Miguel Bernard - Escuela de Ingenieros,,19.50579529,-99.13566828,,,0,,0,
STOP_15233,,Calzada Ermita Iztapalapa - 2 De Abril,,19.34223487,-99.05228376,,,0,,0,
STOP_15234,,Avenida Miguel Bernard - Luis Enrique Erro,,19.50725157,-99.13714886,,,0,,0,
STOP_15236,,Calzada Ermita Iztapalapa - Tulipán,,19.34276128,-99.05644655,,,0,,0,
STOP_15238,,Calzada Ermita Iztapalapa - Periférico,,19.34445185,-99.06012654,,,0,,0,
STOP_15239,,Calzada Ermita Iztapalapa - Metro Constitución De 1917,,19.34599056,-99.06338811,,,0,,0,
STOP_15240,,Xocoyote - Xico,,19.43084,-99.05965447,,,0,,0,
STOP_15242,,Calzada Ermita Iztapalapa - M. Rodríguez,,19.34795442,-99.06781912,,,0,,0,
STOP_15245,,Calzada Ermita Iztapalapa - San Felipe De Jesús,,19.35049525,-99.07356977,,,0,,0,
STOP_15246,,"Xocoyote	- Xana",,19.43091082,-99.06104922,,,0,,0,
STOP_15247,,Miguel Othón de Mendizábal - Avenida del Carrizo,,19.50865727,-99.14251328,,,0,,0,
STOP_15249,,Miguel Othón de Mendizábal - 100 Metros,,19.50542111,-99.150635,,,0,,0,
STOP_15250,,Miguel Othón de Mendizábal - Calzada Vallejo,,19.50309508,-99.15695429,,,0,,0,
STOP_15251,,Calzada Ermita Iztapalapa - Metro UAM,,19.35110262,-99.07491088,,,0,,0,
STOP_15254,,Avenida Poniente 152 - Norte 45,,19.50293326,-99.15736198,,,0,,0,
STOP_15255,,Avenida Poniente 152 - Norte 59,,19.50468285,-99.16295171,,,0,,0,
STOP_15257,,Avenida Poniente 152 - Ex-Hacienda,,19.5061897,-99.16730762,,,0,,0,
STOP_15259,,Avenida Poniente 152 - Sol de México,,19.507201,-99.17052627,,,0,,0,
STOP_15263,,Avenida Ceylan - Poniente 150,,19.5074336,-99.17536497,,,0,,0,
STOP_15264,,Avenida Ceylan - Poniente 148,,19.50596721,-99.17478561,,,0,,0,
STOP_15265,,Avenida Ceylan - Poniente 146,,19.50316587,-99.17373419,,,0,,0,
STOP_15267,,Avenida Ceylan - Poniente 134,,19.49594485,-99.17090178,,,0,,0,
STOP_15269,,Azcapotzalco/La Villa - Avenida Granjas,,19.49076655,-99.1734767,,,0,,0,
STOP_15270,,Avenida Granjas - Avenida Hidalgo,,19.49267809,-99.17322993,,,0,,0,
STOP_15271,,Avenida Granjas - Rastro,,19.4965719,-99.17366982,,,0,,0,
STOP_15272,,Avenida Granjas - Tec. Milenio,,19.49960597,-99.17484999,,,0,,0,
STOP_15274,,Avenida Granjas - Matlacoatl,,19.50105219,-99.17525768,,,0,,0,
STOP_15276,,Eje 5 Norte Avenida Deportivo Reynosa - Tecno-Parque,,19.5013657,-99.17665243,,,0,,0,
STOP_15280,,San Pablo - UAM ,,19.50363108,-99.18330431,,,0,,0,
STOP_15284,,"Xochitlán Sur	- Xochistláhuaca  ",,19.42962586,-99.05809879,,,0,,0,
STOP_15285,,San Pablo - Unidad Tepaltongo,,19.50104207,-99.18394804,,,0,,0,
STOP_15286,,San Pablo - Calzada Real de San Martin,,19.49675394,-99.18480635,,,0,,0,
STOP_15287,,Gasoducto - Pozo Pedregal,,19.49560098,-99.18654442,,,0,,0,
STOP_15288,,Xochitlán Sur - Meztli,,19.42818913,-99.05694008,,,0,,0,
STOP_15289,,Campo Nuevo Limón - Refineria Azcapotzalco,,19.49150487,-99.18820739,,,0,,0,
STOP_15290,,Acolhuacan - Chimalpopoca,,19.42630718,-99.05682206,,,0,,0,
STOP_15291,,Calzada De Guadalupe - San Simón,,19.48963378,-99.18637276,,,0,,0,
STOP_15292,,San Simón - Sevilla,,19.48782334,-99.18648005,,,0,,0,
STOP_15293,,San Simón - Aragón,,19.48609381,-99.18623328,,,0,,0,
STOP_15294,,Acolhuacan - Cuitláhuac,,19.42508289,-99.05689716,,,0,,0,
STOP_15295,,Zaragoza - Castilla,,19.48456654,-99.18661952,,,0,,0,
STOP_15296,,Zaragoza - Castilla,,19.48264479,-99.18722034,,,0,,0,
STOP_15297,,Acolhuacan - Rey Maxtla,,19.42404072,-99.05655384,,,0,,0,
STOP_15298,,Acolhuacan - Circunvalación,,19.42225991,-99.05671477,,,0,,0,
STOP_15300,,"Anillo de Circunvalación	- Meztli",,19.42237121,-99.05727267,,,0,,0,
STOP_15301,,Reforma - Lerdo de Tejada,,19.47987338,-99.18776751,,,0,,0,
STOP_15302,,Reforma - Manuel Acuña,,19.47883156,-99.18804646,,,0,,0,
STOP_15303,,Tenochtitlán - Circunvalación,,19.42266464,-99.05892491,,,0,,0,
STOP_15304,,Centenario - Aquiles Elorduy,,19.47455296,-99.18848634,,,0,,0,
STOP_15305,,José F. Gutiérrez - Invierno,,19.46978871,-99.1885829,,,0,,0,
STOP_15306,,José F. Gutiérrez - Otoño,,19.46778586,-99.18876529,,,0,,0,
STOP_15307,,José F. Gutiérrez - Estío,,19.4657931,-99.18896914,,,0,,0,
STOP_15308,,Tenochtitlán - Iztacihuatl,,19.42448592,-99.06054497,,,0,,0,
STOP_15309,,Estío - Azcapotzalco,,19.46568183,-99.18779969,,,0,,0,
STOP_15310,,Floresta - Egipto,,19.46443761,-99.18679118,,,0,,0,
STOP_15311,,Grecia - Niza,,19.46326419,-99.18428063,,,0,,0,
STOP_15312,,Grecia - Bocanegra,,19.46221215,-99.18256402,,,0,,0,
STOP_15313,,Grecia - Venecia,,19.46124103,-99.18090105,,,0,,0,
STOP_15314,,Venecia - Benito Juárez,,19.45991584,-99.18178082,,,0,,0,
STOP_15315,,Netzahualcóyotl - Cacamatzin,,19.42470852,-99.06165004,,,0,,0,
STOP_15317,,Calzada México Tacuba - Mar Baffin,,19.45850972,-99.18403387,,,0,,0,
STOP_15318,,Netzahualcóyotl - Tizoc,,19.42485018,-99.06272292,,,0,,0,
STOP_15320,,Netzahualcóyotl - Atzayacatl,,19.42501207,-99.06424642,,,0,,0,
STOP_15321,,Netzahualcóyotl - Moctezuma,,19.42516384,-99.06530857,,,0,,0,
STOP_15322,,"Caracol -	Prolongación Río Churubusco",,19.42532573,-99.06638145,,,0,,0,
STOP_15323,,Caracol - Tortuga,,19.42549773,-99.06806588,,,0,,0,
STOP_15324,,Caracol - Langosta,,19.42568998,-99.06969666,,,0,,0,
STOP_15325,,"Caracol  -	Coral",,19.42588222,-99.0711987,,,0,,0,
STOP_15326,,Caracol - Jaiba,,19.42606435,-99.07226086,,,0,,0,
STOP_15327,,Jaiba - Camarón,,19.42501207,-99.07241106,,,0,,0,
STOP_15328,,Agustín Olachea Avilés - Javier Barros Sierra,,19.42360564,-99.07261491,,,0,,0,
STOP_15329,,"Agustín Olachea Avilés -	Ernesto P. Uruchurtú",,19.42212837,-99.0727973,,,0,,0,
STOP_15330,,"Agustín Olachea Avilés -	Jaime Torres Bodet",,19.42066121,-99.07309771,,,0,,0,
STOP_15331,,"Agustín Olachea Avilés -	Benito Coquet",,19.41922638,-99.07326869,,,0,,0,
STOP_15332,,"Agustín Olachea Avilés -	Gustavo Díaz Ordaz",,19.4179697,-99.0734303,,,0,,0,
STOP_15333,," Cetram Metro Pantitlán -	Pantitlán",,19.41655309,-99.0746212,,,0,,0,
STOP_15347,, Terminal Santa Catarina,Eje 10 Sur - Hospital Psiquiátrico,19.3216226,-98.95885706,,,0,,0,
STOP_15349,,Eje 10 Sur - Entrada Autopista A Puebla,,19.32284766,-98.95694733,,,0,,0,
STOP_15356,,Autopista México/Puebla - La Virgen,,19.3425082,-98.97724628,,,0,,0,
STOP_15359,,Eje 6 Sur Avenida De Las Torres - Juan Escutia,,19.34580835,-98.98416638,,,0,,0,
STOP_15369,,Eje 6 Sur Avenida De Las Torres - Lázaro Cárdenas,,19.34636512,-98.98715973,,,0,,0,
STOP_15370,,Eje 5 Sur Avenida De Las Torres - Unión De Colonos / Plaza Civica,,19.34660807,-98.99034619,,,0,,0,
STOP_15376,,Eje 6 Sur Avenida De Las Torres - Olvido,,19.34740778,-98.99255633,,,0,,0,
STOP_15378,,Eje 6 Sur Avenida De Las Torres - Francisco Montes de Oca/ Pipila,,19.34758999,-98.99545312,,,0,,0,
STOP_15382,,Eje 6 Sur Avenida De Las Torres - Miguel De La  Madrid,,19.34824798,-98.99677277,,,0,,0,
STOP_15389,,Eje 6 Sur Avenida De Las Torres - Pino,,19.34909831,-99.00140762,,,0,,0,
STOP_15392,,Eje 6 Sur Avenida De Las Torres - Cuauhtémoc,,19.34944248,-99.00371432,,,0,,0,
STOP_15398,,Eje 6 Sur Avenida De Las Torres - Octavio Senties,,19.35112286,-99.01176095,,,0,,0,
STOP_15399,,Eje 6 Sur Avenida De Las Torres - Eje 8 Sur Calzada Ermita - Iztapalapa,,19.35220599,-99.0142715,,,0,,0,
STOP_15402,,Calzada Ignacio Zaragoza - Eje 3 Oriente Francisco Del Paso Y Troncoso,Parabus Antes de la Curva,19.4275011,-99.11185026,,,0,,0,
STOP_15403,,Eje 6 Sur Avenida De Las Torres - Juan N. Álvarez,,19.35425075,-99.01820898,,,0,,0,
STOP_15406,,Eje 6 Sur Avenida De Las Torres - Avenida México,,19.35673075,-99.02284384,,,0,,0,
STOP_15409,,Eje 6 Sur Avenida De Las Torres - Vicente Guerrero,,19.35900827,-99.02719975,,,0,,0,
STOP_15412,,Avenida Ceylan - Azcapotzalco/La Villa,,19.49100929,-99.16931391,,,0,,0,
STOP_15414,,Eje 3 Oriente Francisco Del Paso Y Troncoso - Fray Servando Teresa De Mier,,19.4203779,-99.11233306,,,0,,0,
STOP_15417,,Avenida Ceylan - Poniente 140,,19.49910029,-99.17212486,,,0,,0,
STOP_15429,,Avenida Poniente 152 - Maravillas,,19.50810106,-99.17341232,,,0,,0,
STOP_15430,,Eje 5 Sur Circunvalacion - Carlos Pacheco,,19.36367455,-99.03213501,,,0,,0,
STOP_15435,,Eje 5 Sur Avenida De Las Torres - Batalla 5 de Mayo,,19.36550661,-99.03696299,,,0,,0,
STOP_15436,,Eje 3 Oriente Francisco Del Paso Y Troncoso - Avenida Del Taller,En la Esquina del Eje 3 Ote y Av. del Taller,19.41387163,-99.11299825,,,0,,0,
STOP_15437,,Eje 5 Sur - Guelatao,,19.36651879,-99.0399456,,,0,,0,
STOP_15441,,Eje 5 Sur Av. Leyes de Reforma - Renovación,,19.37297634,-99.04835701,,,0,,0,
STOP_15442,,Eje 5 Sur Av. Leyes de Reforma - Cadena Azul,,19.37413018,-99.0524447,,,0,,0,
STOP_15443,,Eje 5 Sur Av. Leyes de Reforma - Av. Telecomunicaciones,,19.37517267,-99.05489087,,,0,,0,
STOP_17786,,SIERRA HERMOSA,San Felipe Metro Hidalgo,19.4941865,-99.06592883,,,0,,0,
STOP_15445,,Eje 5 Sur Av. Leyes de Reforma - Unidad Habitacional Las Flores,,19.37604309,-99.05701518,,,0,,0,
STOP_15446,,Eje 5 Sur Av. Leyes de Reforma - Periférico,,19.37655927,-99.05890346,,,0,,0,
STOP_15447,,Eje 3 Oriente Francisco Del Paso Y Troncoso - Viaducto Río De La Piedad,Frente al las escaleras del Vips ,19.40641389,-99.11369562,,,0,,0,
STOP_15449,,Eje 5 Sur Av. Leyes de Reforma - Guerra De Reforma,,19.37750053,-99.06951427,,,0,,0,
STOP_17787,,TEPATITLÁN,San Felipe Metro Hidalgo,19.49253821,-99.06664487,,,0,,0,
STOP_15452,,Eje 5 Sur Av. Leyes de Reforma - Rojo Gómez,,19.37887699,-99.07711029,,,0,,0,
STOP_15455,,Eje 5 Sur Av. Leyes de Reforma - Entrada A La Central De Abasto,,19.3800409,-99.08646584,,,0,,0,
STOP_15456,,Eje 3 Oriente Francisco Del Paso Y Troncoso - Plutarco Elías Calles,,19.39858138,-99.11374927,,,0,,0,
STOP_15457,,Eje 5 Sur Av. Leyes de Reforma - Central de Abasto,,19.37977776,-99.09148693,,,0,,0,
STOP_15460,,Frutas y Legumbres - Verduras,,19.37481842,-99.09127235,,,0,,0,
STOP_15463,,Frutas y Legumbres - Abarrotes,,19.37485891,-99.09393311,,,0,,0,
STOP_15465,,Central de Abasto Avenida Principal - Subasta Hortalizas,,19.37523339,-99.08707738,,,0,,0,
STOP_15466,,Pescaderías - Hualquila,,19.37214639,-99.09927607,,,0,,0,
STOP_15467,,Eje 3 Oriente Francisco Del Paso Y Troncoso - Francisco I. Madero,Parabus Bajando las Escalinatas del Puente Peatonal,19.39086993,-99.11324501,,,0,,0,
STOP_15468,,Terminal Central de Abasto,,19.3718321,-99.0961182,,,0,,0,
STOP_15469,,Eje 3 Oriente Francisco Del Paso Y Troncoso - Tezontle,,19.38864346,-99.11244035,,,0,,0,
STOP_15481,,Ticoman - Moyobamba,,19.50168933,-99.1265595,,,0,,0,
STOP_15483,,Eje 3 Oriente Francisco Del Paso Y Troncoso - Santa María,Esquina de la Calle Santa María ,19.37673133,-99.10882473,,,0,,0,
STOP_15492,,Eje 3 Oriente Francisco Del Paso Y Troncoso - Físicos,Bajando las escalinatas del Puente Peatonal,19.37066866,-99.10832047,,,0,,0,
STOP_15496,,Avenida 5 - Crisóforo Salido Grijalva,"En la esquina de la calle, Frente a una Farmacia",19.36835082,-99.10882473,,,0,,0,
STOP_17788,,CALPULALPAN,San Felipe Metro Hidalgo,19.49060697,-99.06747942,,,0,,0,
STOP_17790,,EDO. DE TABASCO,San Felipe Metro Hidalgo,19.48618067,-99.06976753,,,0,,0,
STOP_17791,,EDO. DE OAXACA,San Felipe Metro Hidalgo,19.48509718,-99.07018475,,,0,,0,
STOP_15519,,Joaquín Pardave - José Rolon,,19.5612208,-99.1394168,,,0,,0,
STOP_15520,,Joaquín Pardave - Agustín Lara,,19.56161998,-99.1395843,,,0,,0,
STOP_15524,,Cometa - Diamante,,19.5605531,-99.1402855,,,0,,0,
STOP_15527,,Calzada Ermita Iztapalapa - Octavio Senties,,19.35354217,-99.0125227,,,0,,0,
STOP_15528,,Calzada Ermita Iztapalapa - Avenida De Las Torres,,19.35262102,-99.01472211,,,0,,0,
STOP_15530,,Arneses - Cuauhtémoc,Parabus en la esquina de la calle,19.34436075,-99.11200047,,,0,,0,
STOP_15533,,18 de Marzo - Puerto Acapulco,,19.55446223,-99.1428566,,,0,,0,
STOP_15534,,18 de Marzo - Puerto Vallarta,,19.55634269,-99.14137602,,,0,,0,
STOP_15537,,18 de Marzo - Luis Echeverría,,19.5575682,-99.1404571,,,0,,0,
STOP_15542,,Carlota Armero - Canal Nacional,Parabus frente al Canal Nacional,19.33606969,-99.11312699,,,0,,0,
STOP_15546,,Carlota Armero - Apaches,Parabus en la esquina de la Avenida Apaches,19.33268835,-99.11305189,,,0,,0,
STOP_15552,,Calzada Ermita Iztapalapa - Primavera,,19.35020169,-99.01789784,,,0,,0,
STOP_17792,,MORELOS,San Felipe Metro Hidalgo,19.4838137,-99.07067956,,,0,,0,
STOP_15554,,Calzada Ermita Iztapalapa - El LLano,,19.3444721,-99.02862668,,,0,,0,
STOP_15559,,Calzada México-Tacuba,,19.45961236,-99.18871164,,,0,,0,
STOP_15560,,Avenida Azcapotzalco - Mar Mediterráneo,,19.46034071,-99.18864727,,,0,,0,
STOP_15561,,Avenida Azcapotzalco - Benito Juárez,,19.46369916,-99.18803573,,,0,,0,
STOP_15563,,Avenida Azcapotzalco - Clavería,,19.4656616,-99.18789625,,,0,,0,
STOP_15565,,Avenida Azcapotzalco - Otoño,,19.46766448,-99.18767095,,,0,,0,
STOP_15566,,Avenida Azcapotzalco - Invierno,,19.46970779,-99.18748856,,,0,,0,
STOP_15568,,Avenida Azcapotzalco - San Lucas,,19.47207476,-99.18724179,,,0,,0,
STOP_15569,,Avenida Azcapotzalco - Aquiles Elorduy,,19.4743102,-99.18720961,,,0,,0,
STOP_15570,,Avenida Azcapotzalco - Manuel Acuña,,19.47850789,-99.1869843,,,0,,0,
STOP_15571,,Avenida Azcapotzalco - Esperanza,,19.48238181,-99.18602943,,,0,,0,
STOP_15572,,Avenida Azcapotzalco - Castilla,,19.48450585,-99.18566465,,,0,,0,
STOP_15573,,Avenida Azcapotzalco - San Simón,,19.48714569,-99.18522477,,,0,,0,
STOP_15574,,Avenida Azcapotzalco - Antigua Calzada de Guadalupe,,19.48957309,-99.18608308,,,0,,0,
STOP_15575,,Avenida Azcapotzalco - Tepantongo,,19.49100929,-99.18631911,,,0,,0,
STOP_15577,,Avenida Tepantongo - Refinería Minatitlan,,19.49255672,-99.18654442,,,0,,0,
STOP_15578,,Avenida Tepantongo - Salamanca,,19.49399289,-99.18590069,,,0,,0,
STOP_15579,,Avenida Tepantongo - Real de San Martín,,19.49665281,-99.18480635,,,0,,0,
STOP_15580,,Avenida San Pablo Xalpa - Módulo 23,,19.49872609,-99.18432355,,,0,,0,
STOP_15582,,Calzada Ermita Iztapalapa - San Lorenzo,,19.35121397,-99.07516837,,,0,,0,
STOP_15583,,San Pablo Xalpa - Deportivo Reyonsa,,19.50140615,-99.18377638,,,0,,0,
STOP_15584,,San Pablo Xalpa - Eje 5 Norte,,19.50386368,-99.18313265,,,0,,0,
STOP_15585,,Eje 5 Norte Avenida Deportivo Reynosa - Alameda Norte,,19.50145672,-99.17689919,,,0,,0,
STOP_15587,,Avenida Granjas - Matlacoatl,,19.50079935,-99.17547226,,,0,,0,
STOP_15589,,Central de Abasto - Pescaderías,,19.3722369,-99.0980288,,,0,,0,
STOP_15590,,Calzada Ermita Iztapalapa - Francisco J. Mina,,19.35455443,-99.08260345,,,0,,0,
STOP_15592,,Calzada Ermita Iztapalapa - Metro Cerro De La Estrella,,19.35654855,-99.08636928,,,0,,0,
STOP_15596,,Calzada Ermita Iztapalapa - La Estrella,,19.3586135,-99.08977032,,,0,,0,
STOP_15598,,Calzada Ermita Iztapalapa - Metro Iztapalapa,,19.3578847,-99.09347177,,,0,,0,
STOP_15599,,Hualquila - Canal De Churubusco,,19.37413018,-99.09866452,,,0,,0,
STOP_15600,,Antigua Calzada de Guadalupe - Norte 59,,19.49011925,-99.16650295,,,0,,0,
STOP_15602,,Antigua Calzada de Guadalupe - Metro Ferrería,,19.49076655,-99.17328358,,,0,,0,
